{"code":"SUCCESS","data":[{"id":"6316c269315584bc36210bce","city":null,"code":"Asahan","name":"Asahan","type":"CITY","locator":{"latitude":2.8475289,"longitude":99.2531382},"popular":false,"timezone":7,"precedence":0},{"id":"6319624a31558438618b18a1","city":null,"code":"Asahan","name":"Asahan","type":"CITY","locator":{"latitude":2.8475289,"longitude":99.2531382},"popular":false,"timezone":7,"precedence":0},{"id":"5a977e7fb2b78c6734f17f47","city":null,"code":"Bandung","name":"Bandung","type":"CITY","locator":{"latitude":-6.917464,"longitude":107.619123},"popular":true,"timezone":7,"precedence":0},{"id":"5a977e7fb2b78c6734f17f48","city":null,"code":"Banjar","name":"Banjar","type":"CITY","locator":{"latitude":-3.320023,"longitude":114.999146},"popular":false,"timezone":7,"precedence":0},{"id":"5a977e7fb2b78c6734f17f49","city":null,"code":"Banyumas","name":"Banyumas","type":"CITY","locator":{"latitude":-7.483213,"longitude":109.140438},"popular":false,"timezone":7,"precedence":0},{"id":"5a977e7fb2b78c6734f17f4a","city":null,"code":"Banyuwangi","name":"Banyuwangi","type":"CITY","locator":{"latitude":-8.219094,"longitude":114.369142},"popular":false,"timezone":7,"precedence":0},{"id":"5a977e7fb2b78c6734f17f4b","city":null,"code":"Batang","name":"Batang","type":"CITY","locator":{"latitude":-6.908045,"longitude":109.73268},"popular":false,"timezone":7,"precedence":0},{"id":"6316c269315584bc36210bcf","city":null,"code":"Batu Bara","name":"Batu Bara","type":"CITY","locator":{"latitude":3.2307912,"longitude":99.3399155},"popular":false,"timezone":7,"precedence":0},{"id":"5a977e7fb2b78c6734f17f4c","city":null,"code":"Baturaja","name":"Baturaja","type":"CITY","locator":{"latitude":-5.040265,"longitude":103.839016},"popular":false,"timezone":7,"precedence":0},{"id":"5a977e7fb2b78c6734f17f4d","city":null,"code":"Bekasi","name":"Bekasi","type":"CITY","locator":{"latitude":-6.23827,"longitude":106.975573},"popular":false,"timezone":7,"precedence":0},{"id":"5a977e7fb2b78c6734f17f4e","city":null,"code":"Binjai","name":"Binjai","type":"CITY","locator":{"latitude":3.613548,"longitude":98.502529},"popular":false,"timezone":7,"precedence":0},{"id":"5a977e7fb2b78c6734f17f4f","city":null,"code":"Blitar","name":"Blitar","type":"CITY","locator":{"latitude":-8.095463,"longitude":112.160906},"popular":false,"timezone":7,"precedence":0},{"id":"5a977e7fb2b78c6734f17f50","city":null,"code":"Blora","name":"Blora","type":"CITY","locator":{"latitude":7.0122,"longitude":111.3799},"popular":false,"timezone":7,"precedence":0},{"id":"5a977e7fb2b78c6734f17f51","city":null,"code":"Bogor","name":"Bogor","type":"CITY","locator":{"latitude":-6.597147,"longitude":106.806039},"popular":false,"timezone":7,"precedence":0},{"id":"5a977e7fb2b78c6734f17f52","city":null,"code":"Bojonegoro","name":"Bojonegoro","type":"CITY","locator":{"latitude":-7.317463,"longitude":111.761466},"popular":false,"timezone":7,"precedence":0},{"id":"5a977e7fb2b78c6734f17f53","city":null,"code":"Boyolali","name":"Boyolali","type":"CITY","locator":{"latitude":-7.431777,"longitude":110.688354},"popular":false,"timezone":7,"precedence":0},{"id":"5a977e7fb2b78c6734f17f54","city":null,"code":"Brebes","name":"Brebes","type":"CITY","locator":{"latitude":-6.856421,"longitude":109.039376},"popular":false,"timezone":7,"precedence":0},{"id":"5a977e7fb2b78c6734f17f55","city":null,"code":"Ciamis","name":"Ciamis","type":"CITY","locator":{"latitude":-7.329868,"longitude":108.332255},"popular":false,"timezone":7,"precedence":0},{"id":"5a977e7fb2b78c6734f17f56","city":null,"code":"Cianjur","name":"Cianjur","type":"CITY","locator":{"latitude":-6.81463,"longitude":107.131829},"popular":false,"timezone":7,"precedence":0},{"id":"5a977e7fb2b78c6734f17f57","city":null,"code":"Cikampek","name":"Cikampek","type":"CITY","locator":{"latitude":-6.395874,"longitude":107.438111},"popular":false,"timezone":7,"precedence":0},{"id":"5a977e7fb2b78c6734f17f58","city":null,"code":"Cilacap","name":"Cilacap","type":"CITY","locator":{"latitude":-7.698299,"longitude":109.023521},"popular":false,"timezone":7,"precedence":0},{"id":"5a977e7fb2b78c6734f17f59","city":null,"code":"Cilegon","name":"Cilegon","type":"CITY","locator":{"latitude":-6.002534,"longitude":106.01112},"popular":false,"timezone":7,"precedence":0},{"id":"5a977e7fb2b78c6734f17f5a","city":null,"code":"Cirebon","name":"Cirebon","type":"CITY","locator":{"latitude":-6.732023,"longitude":108.552316},"popular":false,"timezone":7,"precedence":0},{"id":"5a977e7fb2b78c6734f17f5b","city":null,"code":"Deli Serdang","name":"Deli Serdang","type":"CITY","locator":{"latitude":3.42018,"longitude":98.704075},"popular":false,"timezone":7,"precedence":0},{"id":"5a977e7fb2b78c6734f17f5c","city":null,"code":"Demak","name":"Demak","type":"CITY","locator":{"latitude":-6.892161,"longitude":110.63775},"popular":false,"timezone":7,"precedence":0},{"id":"5a977e7fb2b78c6734f17f5d","city":null,"code":"Denpasar","name":"Denpasar","type":"CITY","locator":{"latitude":-8.670458,"longitude":115.212629},"popular":false,"timezone":7,"precedence":0},{"id":"5a977e7fb2b78c6734f17f5e","city":null,"code":"Garut","name":"Garut","type":"CITY","locator":{"latitude":-7.251216,"longitude":107.923556},"popular":false,"timezone":7,"precedence":0},{"id":"5a977e7fb2b78c6734f17f5f","city":null,"code":"Gombong","name":"Gombong","type":"CITY","locator":{"latitude":-7.605282,"longitude":109.515156},"popular":false,"timezone":7,"precedence":0},{"id":"5a977e7fb2b78c6734f17f60","city":null,"code":"Grobogan","name":"Grobogan","type":"CITY","locator":{"latitude":-7.154167,"longitude":110.950664},"popular":false,"timezone":7,"precedence":0},{"id":"5a977e7fb2b78c6734f17f61","city":null,"code":"Indramayu","name":"Indramayu","type":"CITY","locator":{"latitude":-6.33731,"longitude":108.325833},"popular":false,"timezone":7,"precedence":0},{"id":"5a977e7fb2b78c6734f17f62","city":null,"code":"Jakarta","name":"Jakarta","type":"CITY","locator":{"latitude":-6.174465,"longitude":106.822745},"popular":true,"timezone":7,"precedence":0},{"id":"5a977e7fb2b78c6734f17f63","city":null,"code":"Jatibarang","name":"Jatibarang","type":"CITY","locator":{"latitude":-6.435871,"longitude":108.314866},"popular":false,"timezone":7,"precedence":0},{"id":"5a977e7fb2b78c6734f17f64","city":null,"code":"Jember","name":"Jember","type":"CITY","locator":{"latitude":-8.173312,"longitude":113.700931},"popular":false,"timezone":7,"precedence":0},{"id":"5a977e7fb2b78c6734f17f65","city":null,"code":"Jombang","name":"Jombang","type":"CITY","locator":{"latitude":-7.574087,"longitude":112.28609},"popular":false,"timezone":7,"precedence":0},{"id":"58d8f67f93bc1900c45eae61","city":null,"code":"Karawang","name":"Karawang","type":"CITY","locator":{"latitude":0,"longitude":0},"popular":false,"timezone":7,"precedence":0},{"id":"5a977e7fb2b78c6734f17f66","city":null,"code":"Kebumen","name":"Kebumen","type":"CITY","locator":{"latitude":-7.668056,"longitude":109.652457},"popular":false,"timezone":7,"precedence":0},{"id":"5a977e7fb2b78c6734f17f67","city":null,"code":"Kediri","name":"Kediri","type":"CITY","locator":{"latitude":-7.848016,"longitude":112.017829},"popular":false,"timezone":7,"precedence":0},{"id":"5a977e7fb2b78c6734f17f68","city":null,"code":"Kendal","name":"Kendal","type":"CITY","locator":{"latitude":54.328006,"longitude":-2.74629},"popular":false,"timezone":7,"precedence":0},{"id":"5a977e7fb2b78c6734f17f69","city":null,"code":"Kisaran","name":"Kisaran","type":"CITY","locator":{"latitude":2.983163,"longitude":99.627871},"popular":false,"timezone":7,"precedence":0},{"id":"5a977e7fb2b78c6734f17f6a","city":null,"code":"Klaten","name":"Klaten","type":"CITY","locator":{"latitude":-7.657893,"longitude":110.664568},"popular":false,"timezone":7,"precedence":0},{"id":"5a977e7fb2b78c6734f17f6b","city":null,"code":"Kotabumi","name":"Kotabumi","type":"CITY","locator":{"latitude":-4.82461,"longitude":104.896407},"popular":false,"timezone":7,"precedence":0},{"id":"651e38c73860453076fb8669","city":null,"code":"Kulon Progo","name":"Kulon Progo","type":"CITY","locator":{"latitude":-7.87825028,"longitude":110.0995571},"popular":false,"timezone":7,"precedence":0},{"id":"5a977e7fb2b78c6734f17f6c","city":null,"code":"Kutoarjo","name":"Kutoarjo","type":"CITY","locator":{"latitude":-77.20673,"longitude":109.908005},"popular":false,"timezone":7,"precedence":0},{"id":"5a977e7fb2b78c6734f17f6d","city":null,"code":"Lahat","name":"Lahat","type":"CITY","locator":{"latitude":-3.785627,"longitude":103.540799},"popular":false,"timezone":7,"precedence":0},{"id":"5a977e7fb2b78c6734f17f6e","city":null,"code":"Lamongan","name":"Lamongan","type":"CITY","locator":{"latitude":-7.126926,"longitude":112.333777},"popular":false,"timezone":7,"precedence":0},{"id":"5a977e7fb2b78c6734f17f6f","city":null,"code":"Lampung","name":"Lampung","type":"CITY","locator":{"latitude":-4.558585,"longitude":105.406808},"popular":false,"timezone":7,"precedence":0},{"id":"5a977e7fb2b78c6734f17f70","city":null,"code":"Lebak","name":"Lebak","type":"CITY","locator":{"latitude":-6.564396,"longitude":106.252214},"popular":false,"timezone":7,"precedence":0},{"id":"5a977e7fb2b78c6734f17f72","city":null,"code":"Lubuk Linggau","name":"Lubuk Linggau","type":"CITY","locator":{"latitude":-3.299586,"longitude":102.857236},"popular":false,"timezone":7,"precedence":0},{"id":"5a977e7fb2b78c6734f17f73","city":null,"code":"Lumajang","name":"Lumajang","type":"CITY","locator":{"latitude":-8.094357,"longitude":113.144156},"popular":false,"timezone":7,"precedence":0},{"id":"5a977e7fb2b78c6734f17f74","city":null,"code":"Madiun","name":"Madiun","type":"CITY","locator":{"latitude":-7.631059,"longitude":111.530016},"popular":false,"timezone":7,"precedence":0},{"id":"5a977e7fb2b78c6734f17f75","city":null,"code":"Magetan","name":"Magetan","type":"CITY","locator":{"latitude":-7.643314,"longitude":111.356045},"popular":false,"timezone":7,"precedence":0},{"id":"5a977e7fb2b78c6734f17f76","city":null,"code":"Malang","name":"Malang","type":"CITY","locator":{"latitude":-7.96662,"longitude":112.632632},"popular":false,"timezone":7,"precedence":0},{"id":"5a977e7fb2b78c6734f17f77","city":null,"code":"Medan","name":"Medan","type":"CITY","locator":{"latitude":3.595196,"longitude":98.672223},"popular":false,"timezone":7,"precedence":0},{"id":"5a977e7fb2b78c6734f17f78","city":null,"code":"Mojokerto","name":"Mojokerto","type":"CITY","locator":{"latitude":-7.470475,"longitude":112.440133},"popular":false,"timezone":7,"precedence":0},{"id":"5a977e7fb2b78c6734f17f79","city":null,"code":"Muara Enim","name":"Muara Enim","type":"CITY","locator":{"latitude":-3.711416,"longitude":104.007235},"popular":false,"timezone":7,"precedence":0},{"id":"5a977e7fb2b78c6734f17f7a","city":null,"code":"Nganjuk","name":"Nganjuk","type":"CITY","locator":{"latitude":-7.594351,"longitude":111.904554},"popular":false,"timezone":7,"precedence":0},{"id":"5a977e7fb2b78c6734f17f7b","city":null,"code":"Ngawi","name":"Ngawi","type":"CITY","locator":{"latitude":-7.460987,"longitude":111.332197},"popular":false,"timezone":7,"precedence":0},{"id":"6316c269315584bc36210bcd","city":null,"code":"Ogan Ilir","name":"Ogan Ilir","type":"CITY","locator":{"latitude":-3.4189347,"longitude":104.2798486},"popular":false,"timezone":7,"precedence":0},{"id":"6319624a31558438618b18a0","city":null,"code":"Ogan Ilir","name":"Ogan Ilir","type":"CITY","locator":{"latitude":-3.4189347,"longitude":104.2798486},"popular":false,"timezone":7,"precedence":0},{"id":"651e38c73860453076fb8668","city":null,"code":"Padang","name":"Padang","type":"CITY","locator":{"latitude":-0.9416892327,"longitude":100.3741354},"popular":false,"timezone":7,"precedence":0},{"id":"5a977e7fb2b78c6734f17f71","city":null,"code":"Palembang","name":"Palembang","type":"CITY","locator":{"latitude":-2.9760735,"longitude":104.7754307},"popular":false,"timezone":7,"precedence":0},{"id":"5a977e7fb2b78c6734f17f7c","city":null,"code":"Pasuruan","name":"Pasuruan","type":"CITY","locator":{"latitude":-7.646919,"longitude":112.899923},"popular":false,"timezone":7,"precedence":0},{"id":"5a977e7fb2b78c6734f17f7d","city":null,"code":"Pekalongan","name":"Pekalongan","type":"CITY","locator":{"latitude":-6.889836,"longitude":109.674592},"popular":false,"timezone":7,"precedence":0},{"id":"5a977e7fb2b78c6734f17f7e","city":null,"code":"Pemalang","name":"Pemalang","type":"CITY","locator":{"latitude":-7.059942,"longitude":109.425911},"popular":false,"timezone":7,"precedence":0},{"id":"5a977e7fb2b78c6734f17f7f","city":null,"code":"Pematang Siantar","name":"Pematang Siantar","type":"CITY","locator":{"latitude":2.970042,"longitude":99.068167},"popular":false,"timezone":7,"precedence":0},{"id":"5a977e7fb2b78c6734f17f80","city":null,"code":"Ponorogo","name":"Ponorogo","type":"CITY","locator":{"latitude":-7.865076,"longitude":111.469632},"popular":false,"timezone":7,"precedence":0},{"id":"5a977e7fb2b78c6734f17f81","city":null,"code":"Prabumulih","name":"Prabumulih","type":"CITY","locator":{"latitude":-3.421371,"longitude":104.243683},"popular":false,"timezone":7,"precedence":0},{"id":"5a977e7fb2b78c6734f17f82","city":null,"code":"Probolinggo","name":"Probolinggo","type":"CITY","locator":{"latitude":-7.776423,"longitude":113.203713},"popular":false,"timezone":7,"precedence":0},{"id":"5a977e7fb2b78c6734f17f83","city":null,"code":"Purwakarta","name":"Purwakarta","type":"CITY","locator":{"latitude":-6.540666,"longitude":107.446272},"popular":false,"timezone":7,"precedence":0},{"id":"5a977e7fb2b78c6734f17f84","city":null,"code":"Purwokerto","name":"Purwokerto","type":"CITY","locator":{"latitude":-7.424278,"longitude":109.239637},"popular":false,"timezone":7,"precedence":0},{"id":"5a977e7fb2b78c6734f17f85","city":null,"code":"Purworejo","name":"Purworejo","type":"CITY","locator":{"latitude":-7.740374,"longitude":110.033055},"popular":false,"timezone":7,"precedence":0},{"id":"5a977e7fb2b78c6734f17f86","city":null,"code":"Rantau Prapat","name":"Rantau Prapat","type":"CITY","locator":{"latitude":1.3658,"longitude":112.858217},"popular":false,"timezone":7,"precedence":0},{"id":"5a977e7fb2b78c6734f17f87","city":null,"code":"Semarang","name":"Semarang","type":"CITY","locator":{"latitude":-7.005145,"longitude":110.438125},"popular":true,"timezone":7,"precedence":0},{"id":"5a977e7fb2b78c6734f17f88","city":null,"code":"Serang","name":"Serang","type":"CITY","locator":{"latitude":-6.110366,"longitude":106.163975},"popular":false,"timezone":7,"precedence":0},{"id":"5a977e7fb2b78c6734f17f89","city":null,"code":"Serdang Bedagai","name":"Serdang Bedagai","type":"CITY","locator":{"latitude":3.337169,"longitude":99.057109},"popular":false,"timezone":7,"precedence":0},{"id":"5a977e7fb2b78c6734f17f8a","city":null,"code":"Sidoarjo","name":"Sidoarjo","type":"CITY","locator":{"latitude":-7.472613,"longitude":112.66754},"popular":false,"timezone":7,"precedence":0},{"id":"5a977e7fb2b78c6734f17f8b","city":null,"code":"Solo","name":"Solo","type":"CITY","locator":{"latitude":-7.575489,"longitude":110.824327},"popular":false,"timezone":7,"precedence":0},{"id":"5a977e7fb2b78c6734f17f8c","city":null,"code":"Sragen","name":"Sragen","type":"CITY","locator":{"latitude":-7.43027,"longitude":111.009186},"popular":false,"timezone":7,"precedence":0},{"id":"5a977e7fb2b78c6734f17f8d","city":null,"code":"Subang","name":"Subang","type":"CITY","locator":{"latitude":3.056733,"longitude":101.585119},"popular":false,"timezone":7,"precedence":0},{"id":"5a977e7fb2b78c6734f17f8e","city":null,"code":"Sukabumi","name":"Sukabumi","type":"CITY","locator":{"latitude":-6.927736,"longitude":106.929958},"popular":false,"timezone":7,"precedence":0},{"id":"5a977e7fb2b78c6734f17f8f","city":null,"code":"Surabaya","name":"Surabaya","type":"CITY","locator":{"latitude":-7.257472,"longitude":112.752088},"popular":true,"timezone":7,"precedence":0},{"id":"5c0657dcf079cfd778b551a5","city":null,"code":"Surakarta","name":"Surakarta","type":"CITY","locator":{"latitude":-7.575489,"longitude":110.824327},"popular":false,"timezone":7,"precedence":0},{"id":"5a977e7fb2b78c6734f17f90","city":null,"code":"Tangerang","name":"Tangerang","type":"CITY","locator":{"latitude":-6.202394,"longitude":106.65271},"popular":false,"timezone":7,"precedence":0},{"id":"5a977e7fb2b78c6734f17f91","city":null,"code":"Tanjung Balai","name":"Tanjung Balai","type":"CITY","locator":{"latitude":2.966235,"longitude":99.798546},"popular":false,"timezone":7,"precedence":0},{"id":"5a977e7fb2b78c6734f17f92","city":null,"code":"Tasikmalaya","name":"Tasikmalaya","type":"CITY","locator":{"latitude":-7.350581,"longitude":108.217163},"popular":false,"timezone":7,"precedence":0},{"id":"5a977e7fb2b78c6734f17f93","city":null,"code":"Tegal","name":"Tegal","type":"CITY","locator":{"latitude":-6.879704,"longitude":109.125592},"popular":false,"timezone":7,"precedence":0},{"id":"5a977e7fb2b78c6734f17f94","city":null,"code":"Tulungagung","name":"Tulungagung","type":"CITY","locator":{"latitude":-8.091221,"longitude":111.964173},"popular":false,"timezone":7,"precedence":0},{"id":"5a977e7fb2b78c6734f17f95","city":null,"code":"Yogyakarta","name":"Yogyakarta","type":"CITY","locator":{"latitude":-7.79558,"longitude":110.36949},"popular":true,"timezone":7,"precedence":0},{"id":"6319624b31558438618b18a6","city":{"code":"Asahan","name":"Asahan","locator":null,"popular":false,"timezone":7},"code":"TUK","name":"Teluk Dalam","type":"STATION","locator":{"latitude":2.8275982,"longitude":99.6086402},"popular":false,"timezone":7,"precedence":0},{"id":"5a977e7fb2b78c6734f17f96","city":{"code":"Bandung","name":"Bandung","locator":null,"popular":true,"timezone":7},"code":"BD","name":"Bandung","type":"STATION","locator":{"latitude":-6.914174,"longitude":107.602515},"popular":true,"timezone":7,"precedence":0},{"id":"5a977e7fb2b78c6734f17f97","city":{"code":"Bandung","name":"Bandung","locator":null,"popular":false,"timezone":7},"code":"CCL","name":"Cicalengka","type":"STATION","locator":{"latitude":-6.981533,"longitude":107.83269},"popular":false,"timezone":7,"precedence":0},{"id":"5a977e7fb2b78c6734f17f98","city":{"code":"Bandung","name":"Bandung","locator":null,"popular":false,"timezone":7},"code":"CD","name":"Cikadongdong","type":"STATION","locator":{"latitude":-6.71567051791,"longitude":107.390845209821},"popular":false,"timezone":7,"precedence":0},{"id":"5a977e7fb2b78c6734f17f99","city":{"code":"Bandung","name":"Bandung","locator":null,"popular":false,"timezone":7},"code":"CMI","name":"Cimahi","type":"STATION","locator":{"latitude":-6.885896851627,"longitude":107.536076341104},"popular":false,"timezone":7,"precedence":0},{"id":"5a977e7fb2b78c6734f17f9a","city":{"code":"Bandung","name":"Bandung","locator":null,"popular":false,"timezone":7},"code":"GDB","name":"Gedebage","type":"STATION","locator":{"latitude":-6.940699343617,"longitude":107.689625938657},"popular":false,"timezone":7,"precedence":0},{"id":"5a977e7fb2b78c6734f17f9b","city":{"code":"Bandung","name":"Bandung","locator":null,"popular":false,"timezone":7},"code":"HRP","name":"Haurpugur","type":"STATION","locator":{"latitude":-6.98070954543,"longitude":107.799853577733},"popular":false,"timezone":7,"precedence":0},{"id":"5a977e7fb2b78c6734f17f9c","city":{"code":"Bandung","name":"Bandung","locator":null,"popular":false,"timezone":7},"code":"KAC","name":"Kiaracondong","type":"STATION","locator":{"latitude":-6.924614285967,"longitude":107.646712503662},"popular":false,"timezone":7,"precedence":0},{"id":"5a977e7fb2b78c6734f17f9d","city":{"code":"Bandung","name":"Bandung","locator":null,"popular":false,"timezone":7},"code":"PDL","name":"Padalarang","type":"STATION","locator":{"latitude":-6.842884,"longitude":107.497387},"popular":false,"timezone":7,"precedence":0},{"id":"5a977e7fb2b78c6734f17f9e","city":{"code":"Bandung","name":"Bandung","locator":null,"popular":false,"timezone":7},"code":"RCK","name":"Rancaekek","type":"STATION","locator":{"latitude":-6.964941783223,"longitude":107.755801970569},"popular":false,"timezone":7,"precedence":0},{"id":"5a977e7fb2b78c6734f17f9f","city":{"code":"Bandung","name":"Bandung","locator":null,"popular":false,"timezone":7},"code":"RH","name":"Rendeh","type":"STATION","locator":{"latitude":-6.736202964317,"longitude":107.398652661376},"popular":false,"timezone":7,"precedence":0},{"id":"5a977e7fb2b78c6734f17fa0","city":{"code":"Banjar","name":"Banjar","locator":null,"popular":false,"timezone":7},"code":"BJR","name":"Banjar","type":"STATION","locator":{"latitude":-7.376245,"longitude":108.542244},"popular":false,"timezone":7,"precedence":0},{"id":"5a977e7fb2b78c6734f17fa1","city":{"code":"Banjar","name":"Banjar","locator":null,"popular":false,"timezone":7},"code":"LN","name":"Langen","type":"STATION","locator":{"latitude":-7.39410395943,"longitude":108.699393550926},"popular":false,"timezone":7,"precedence":0},{"id":"5a977e7fb2b78c6734f17fa7","city":{"code":"Banyumas","name":"Banyumas","locator":null,"popular":false,"timezone":7},"code":"KRR","name":"Karangsari","type":"STATION","locator":{"latitude":-7.3825267,"longitude":109.1188896},"popular":false,"timezone":7,"precedence":0},{"id":"5a977e7fb2b78c6734f17fa2","city":{"code":"Banyumas","name":"Banyumas","locator":null,"popular":false,"timezone":7},"code":"KBS","name":"Kebasen","type":"STATION","locator":{"latitude":-7.530195545242,"longitude":109.203069347221},"popular":false,"timezone":7,"precedence":0},{"id":"5a977e7fb2b78c6734f17fa3","city":{"code":"Banyumas","name":"Banyumas","locator":null,"popular":false,"timezone":7},"code":"KJ","name":"Kemranjen","type":"STATION","locator":{"latitude":-7.621936100965,"longitude":109.312960551906},"popular":false,"timezone":7,"precedence":0},{"id":"5a977e7fb2b78c6734f17fa4","city":{"code":"Banyumas","name":"Banyumas","locator":null,"popular":false,"timezone":7},"code":"NTG","name":"Notog","type":"STATION","locator":{"latitude":-7.486090473045,"longitude":109.213323373016},"popular":false,"timezone":7,"precedence":0},{"id":"5a977e7fb2b78c6734f17fa5","city":{"code":"Banyumas","name":"Banyumas","locator":null,"popular":false,"timezone":7},"code":"SPH","name":"Sumpiuh","type":"STATION","locator":{"latitude":-7.615388,"longitude":109.361189},"popular":false,"timezone":7,"precedence":0},{"id":"5a977e7fb2b78c6734f17fa6","city":{"code":"Banyumas","name":"Banyumas","locator":null,"popular":false,"timezone":7},"code":"TBK","name":"Tambak","type":"STATION","locator":{"latitude":-7.615316164276,"longitude":109.446939141166},"popular":false,"timezone":7,"precedence":0},{"id":"5dc39dc4676cc134ae6ee659","city":{"code":"Banyuwangi","name":"Banyuwangi","locator":null,"popular":false,"timezone":7},"code":"BWI","name":"Banyuwangi Kota","type":"STATION","locator":{"latitude":-8.222837,"longitude":114.340672},"popular":false,"timezone":7,"precedence":0},{"id":"5a977e7fb2b78c6734f17fac","city":{"code":"Banyuwangi","name":"Banyuwangi","locator":null,"popular":false,"timezone":7},"code":"BW","name":"Banyuwangibaru","type":"STATION","locator":{"latitude":-8.1411747,"longitude":114.3949536},"popular":false,"timezone":7,"precedence":0},{"id":"5a977e7fb2b78c6734f17fa8","city":{"code":"Banyuwangi","name":"Banyuwangi","locator":null,"popular":false,"timezone":7},"code":"GLM","name":"Glenmore","type":"STATION","locator":{"latitude":-8.299642870639,"longitude":114.049470449073},"popular":false,"timezone":7,"precedence":0},{"id":"5a977e7fb2b78c6734f17fa9","city":{"code":"Banyuwangi","name":"Banyuwangi","locator":null,"popular":false,"timezone":7},"code":"KBR","name":"Kalibaru","type":"STATION","locator":{"latitude":-8.288733,"longitude":113.98413},"popular":false,"timezone":7,"precedence":0},{"id":"5a977e7fb2b78c6734f17fab","city":{"code":"Banyuwangi","name":"Banyuwangi","locator":null,"popular":false,"timezone":7},"code":"KSL","name":"Kalisetail","type":"STATION","locator":{"latitude":-8.302854078994,"longitude":114.139807941716},"popular":false,"timezone":7,"precedence":0},{"id":"5a977e7fb2b78c6734f17faa","city":{"code":"Banyuwangi","name":"Banyuwangi","locator":null,"popular":false,"timezone":7},"code":"KNE","name":"Karangasem","type":"STATION","locator":{"latitude":-8.222837,"longitude":114.340672},"popular":false,"timezone":7,"precedence":0},{"id":"5dc39dc4676cc134ae6ee657","city":{"code":"Banyuwangi","name":"Banyuwangi","locator":null,"popular":false,"timezone":7},"code":"KTG","name":"Ketapang","type":"STATION","locator":{"latitude":-8.1411747,"longitude":114.3949536},"popular":false,"timezone":7,"precedence":0},{"id":"5a977e7fb2b78c6734f17fad","city":{"code":"Banyuwangi","name":"Banyuwangi","locator":null,"popular":false,"timezone":7},"code":"RGP","name":"Rogojampi","type":"STATION","locator":{"latitude":-8.3045193,"longitude":114.2903909},"popular":false,"timezone":7,"precedence":0},{"id":"5a977e7fb2b78c6734f17fae","city":{"code":"Banyuwangi","name":"Banyuwangi","locator":null,"popular":false,"timezone":7},"code":"SWD","name":"Sumberwadung","type":"STATION","locator":{"latitude":-8.3018887,"longitude":114.1031379},"popular":false,"timezone":7,"precedence":0},{"id":"5a977e7fb2b78c6734f17faf","city":{"code":"Banyuwangi","name":"Banyuwangi","locator":null,"popular":false,"timezone":7},"code":"TGR","name":"Temuguruh","type":"STATION","locator":{"latitude":-8.3181166,"longitude":114.2398331},"popular":false,"timezone":7,"precedence":0},{"id":"5a977e7fb2b78c6734f17fb0","city":{"code":"Batang","name":"Batang","locator":null,"popular":false,"timezone":7},"code":"BTG","name":"Batang","type":"STATION","locator":{"latitude":-6.906523988238,"longitude":109.732581354492},"popular":false,"timezone":7,"precedence":0},{"id":"5a977e7fb2b78c6734f17fb1","city":{"code":"Batang","name":"Batang","locator":null,"popular":false,"timezone":7},"code":"UJN","name":"Ujungnegoro","type":"STATION","locator":{"latitude":-6.9087999,"longitude":109.7891665},"popular":false,"timezone":7,"precedence":0},{"id":"6319624b31558438618b18b9","city":{"code":"Batu Bara","name":"Batu Bara","locator":null,"popular":false,"timezone":7},"code":"LTD","name":"Laut Tador","type":"STATION","locator":{"latitude":3.2814925,"longitude":99.2376373},"popular":false,"timezone":7,"precedence":0},{"id":"5a977e7fb2b78c6734f17fb2","city":{"code":"Baturaja","name":"Baturaja","locator":null,"popular":false,"timezone":7},"code":"BTA","name":"Baturaja","type":"STATION","locator":{"latitude":-4.1273346,"longitude":104.1598383},"popular":false,"timezone":7,"precedence":0},{"id":"5a977e7fb2b78c6734f17fb3","city":{"code":"Baturaja","name":"Baturaja","locator":null,"popular":false,"timezone":7},"code":"PNW","name":"Paninjawan","type":"STATION","locator":{"latitude":-3.8798,"longitude":104.3765},"popular":false,"timezone":7,"precedence":0},{"id":"5a977e7fb2b78c6734f17fb4","city":{"code":"Bekasi","name":"Bekasi","locator":null,"popular":false,"timezone":7},"code":"BKS","name":"Bekasi","type":"STATION","locator":{"latitude":-6.2349497,"longitude":107.01255},"popular":false,"timezone":7,"precedence":0},{"id":"6221c3fccde9f9004f20535b","city":{"code":"Bekasi","name":"Bekasi","locator":null,"popular":false,"timezone":7},"code":"CKR","name":"Cikarang","type":"STATION","locator":{"latitude":107.14531020060795,"longitude":-6.255362655298306},"popular":false,"timezone":7,"precedence":0},{"id":"5a977e7fb2b78c6734f17fb5","city":{"code":"Binjai","name":"Binjai","locator":null,"popular":false,"timezone":7},"code":"BIJ","name":"Binjai","type":"STATION","locator":{"latitude":3.60974,"longitude":98.497985},"popular":false,"timezone":7,"precedence":0},{"id":"5a977e7fb2b78c6734f17fb6","city":{"code":"Blitar","name":"Blitar","locator":null,"popular":false,"timezone":7},"code":"BL","name":"Blitar","type":"STATION","locator":{"latitude":-8.101398,"longitude":112.16272},"popular":false,"timezone":7,"precedence":0},{"id":"5a977e7fb2b78c6734f17fb7","city":{"code":"Blitar","name":"Blitar","locator":null,"popular":false,"timezone":7},"code":"GRM","name":"Garum","type":"STATION","locator":{"latitude":-8.073573622498,"longitude":112.217101804893},"popular":false,"timezone":7,"precedence":0},{"id":"5a977e7fb2b78c6734f17fb8","city":{"code":"Blitar","name":"Blitar","locator":null,"popular":false,"timezone":7},"code":"KSB","name":"Kesamben","type":"STATION","locator":{"latitude":-8.149277266965,"longitude":112.363368180968},"popular":false,"timezone":7,"precedence":0},{"id":"5a977e7fb2b78c6734f17fb9","city":{"code":"Blitar","name":"Blitar","locator":null,"popular":false,"timezone":7},"code":"TAL","name":"Talun","type":"STATION","locator":{"latitude":-8.091535,"longitude":112.28854},"popular":false,"timezone":7,"precedence":0},{"id":"5a977e7fb2b78c6734f17fba","city":{"code":"Blitar","name":"Blitar","locator":null,"popular":false,"timezone":7},"code":"WG","name":"Wlingi","type":"STATION","locator":{"latitude":-8.088364,"longitude":112.3177574},"popular":false,"timezone":7,"precedence":0},{"id":"5a977e7fb2b78c6734f17fbb","city":{"code":"Blora","name":"Blora","locator":null,"popular":false,"timezone":7},"code":"CU","name":"Cepu","type":"STATION","locator":{"latitude":-7.154542282587,"longitude":111.590772285879},"popular":false,"timezone":7,"precedence":0},{"id":"5a977e7fb2b78c6734f17fbc","city":{"code":"Blora","name":"Blora","locator":null,"popular":false,"timezone":7},"code":"DPL","name":"Doplang","type":"STATION","locator":{"latitude":-7.182842966958,"longitude":111.287979507357},"popular":false,"timezone":7,"precedence":0},{"id":"5a977e7fb2b78c6734f17fbd","city":{"code":"Blora","name":"Blora","locator":null,"popular":false,"timezone":7},"code":"RBG","name":"Randublatung","type":"STATION","locator":{"latitude":-7.192304301349,"longitude":111.398030101852},"popular":false,"timezone":7,"precedence":0},{"id":"651e38c73860453076fb865d","city":{"code":"Blora","name":"Blora","locator":null,"popular":false,"timezone":7},"code":"WDU","name":"Wadu","type":"STATION","locator":{"latitude":-7.196107973,"longitude":111.5004623},"popular":false,"timezone":7,"precedence":0},{"id":"5a977e7fb2b78c6734f17fc2","city":{"code":"Bogor","name":"Bogor","locator":null,"popular":false,"timezone":7},"code":"BTT","name":"Batu Tulis","type":"STATION","locator":{"latitude":-6.6259454,"longitude":106.8096066},"popular":false,"timezone":7,"precedence":0},{"id":"5a977e7fb2b78c6734f17fbe","city":{"code":"Bogor","name":"Bogor","locator":null,"popular":false,"timezone":7},"code":"BOO","name":"Bogor","type":"STATION","locator":{"latitude":-6.594335,"longitude":106.790659},"popular":false,"timezone":7,"precedence":0},{"id":"625533b0d87de100528cd2db","city":{"code":"Bogor","name":"Bogor","locator":null,"popular":false,"timezone":7},"code":"BOP","name":"Bogor Paledang","type":"STATION","locator":{"latitude":106.78970739708217,"longitude":-6.596200737407503},"popular":false,"timezone":7,"precedence":0},{"id":"5a977e7fb2b78c6734f17fbf","city":{"code":"Bogor","name":"Bogor","locator":null,"popular":false,"timezone":7},"code":"CGB","name":"Cigombong","type":"STATION","locator":{"latitude":-6.742209435568,"longitude":106.803112752149},"popular":false,"timezone":7,"precedence":0},{"id":"5a977e7fb2b78c6734f17fc0","city":{"code":"Bogor","name":"Bogor","locator":null,"popular":false,"timezone":7},"code":"MSG","name":"Maseng","type":"STATION","locator":{"latitude":-6.702577,"longitude":106.814676},"popular":false,"timezone":7,"precedence":0},{"id":"5a977e7fb2b78c6734f17fc1","city":{"code":"Bogor","name":"Bogor","locator":null,"popular":false,"timezone":7},"code":"PRP","name":"Parungpanjang","type":"STATION","locator":{"latitude":-6.34422864193,"longitude":106.569464662704},"popular":false,"timezone":7,"precedence":0},{"id":"5a977e7fb2b78c6734f17fc3","city":{"code":"Bojonegoro","name":"Bojonegoro","locator":null,"popular":false,"timezone":7},"code":"BJ","name":"Bojonegoro","type":"STATION","locator":{"latitude":-7.164252896115,"longitude":111.886628440475},"popular":false,"timezone":7,"precedence":0},{"id":"5a977e7fb2b78c6734f17fc4","city":{"code":"Bojonegoro","name":"Bojonegoro","locator":null,"popular":false,"timezone":7},"code":"KIT","name":"Kalitidu","type":"STATION","locator":{"latitude":-7.131741,"longitude":111.767356},"popular":false,"timezone":7,"precedence":0},{"id":"5a977e7fb2b78c6734f17fc5","city":{"code":"Bojonegoro","name":"Bojonegoro","locator":null,"popular":false,"timezone":7},"code":"SRJ","name":"Sumberrejo","type":"STATION","locator":{"latitude":-7.178027244302,"longitude":112.001313407986},"popular":false,"timezone":7,"precedence":0},{"id":"5a977e7fb2b78c6734f17fc6","city":{"code":"Boyolali","name":"Boyolali","locator":null,"popular":false,"timezone":7},"code":"TW","name":"Telawa","type":"STATION","locator":{"latitude":-7.185960090232,"longitude":110.75180841468},"popular":false,"timezone":7,"precedence":0},{"id":"5a977e7fb2b78c6734f17fc7","city":{"code":"Brebes","name":"Brebes","locator":null,"popular":false,"timezone":7},"code":"BB","name":"Brebes","type":"STATION","locator":{"latitude":-6.874261,"longitude":109.043019},"popular":false,"timezone":7,"precedence":0},{"id":"5a977e7fb2b78c6734f17fcf","city":{"code":"Brebes","name":"Brebes","locator":null,"popular":false,"timezone":7},"code":"BKA","name":"Bulakamba","type":"STATION","locator":{"latitude":-6.8744818,"longitude":109.0417212},"popular":false,"timezone":7,"precedence":0},{"id":"5a977e7fb2b78c6734f17fc8","city":{"code":"Brebes","name":"Brebes","locator":null,"popular":false,"timezone":7},"code":"BMA","name":"Bumiayu","type":"STATION","locator":{"latitude":-7.237532455395,"longitude":109.009843174851},"popular":false,"timezone":7,"precedence":0},{"id":"5a977e7fb2b78c6734f17fca","city":{"code":"Brebes","name":"Brebes","locator":null,"popular":false,"timezone":7},"code":"KGG","name":"Ketanggungan","type":"STATION","locator":{"latitude":-6.938397015377,"longitude":108.884307338046},"popular":false,"timezone":7,"precedence":0},{"id":"5a977e7fb2b78c6734f17fc9","city":{"code":"Brebes","name":"Brebes","locator":null,"popular":false,"timezone":7},"code":"KGB","name":"Ketanggungan Barat","type":"STATION","locator":{"latitude":-6.929418987851,"longitude":108.856178737434},"popular":false,"timezone":7,"precedence":0},{"id":"5a977e7fb2b78c6734f17fcb","city":{"code":"Brebes","name":"Brebes","locator":null,"popular":false,"timezone":7},"code":"KRT","name":"Kretek","type":"STATION","locator":{"latitude":-7.28568,"longitude":109.029885},"popular":false,"timezone":7,"precedence":0},{"id":"5a977e7fb2b78c6734f17fcd","city":{"code":"Brebes","name":"Brebes","locator":null,"popular":false,"timezone":7},"code":"LR","name":"Larangan","type":"STATION","locator":{"latitude":-6.868084496257,"longitude":109.185656271163},"popular":false,"timezone":7,"precedence":0},{"id":"5a977e7fb2b78c6734f17fce","city":{"code":"Brebes","name":"Brebes","locator":null,"popular":false,"timezone":7},"code":"LRA","name":"Larangan","type":"STATION","locator":{"latitude":-6.990382807334,"longitude":108.948628309192},"popular":false,"timezone":7,"precedence":0},{"id":"5a977e7fb2b78c6734f17fcc","city":{"code":"Brebes","name":"Brebes","locator":null,"popular":false,"timezone":7},"code":"LG","name":"Linggapura","type":"STATION","locator":{"latitude":-7.185198768135,"longitude":109.012556784061},"popular":false,"timezone":7,"precedence":0},{"id":"5a977e7fb2b78c6734f17fd0","city":{"code":"Brebes","name":"Brebes","locator":null,"popular":false,"timezone":7},"code":"PAT","name":"Patuguran","type":"STATION","locator":{"latitude":-7.3282132,"longitude":109.0576637},"popular":false,"timezone":7,"precedence":0},{"id":"5a977e7fb2b78c6734f17fd1","city":{"code":"Brebes","name":"Brebes","locator":null,"popular":false,"timezone":7},"code":"SGG","name":"Songgom","type":"STATION","locator":{"latitude":-7.0245122,"longitude":108.9888769},"popular":false,"timezone":7,"precedence":0},{"id":"5a977e7fb2b78c6734f17fd2","city":{"code":"Brebes","name":"Brebes","locator":null,"popular":false,"timezone":7},"code":"TGN","name":"Tanjung","type":"STATION","locator":{"latitude":-6.8767147,"longitude":108.8588813},"popular":false,"timezone":7,"precedence":0},{"id":"5a97f169b2b78c73bc6f4574","city":{"code":"Ciamis","name":"Ciamis","locator":null,"popular":false,"timezone":7},"code":"BJI","name":"Banjarsari","type":"STATION","locator":{"latitude":-7.37881093,"longitude":108.54010013},"popular":false,"timezone":7,"precedence":0},{"id":"5a977e7fb2b78c6734f17fd3","city":{"code":"Ciamis","name":"Ciamis","locator":null,"popular":false,"timezone":7},"code":"CI","name":"Ciamis","type":"STATION","locator":{"latitude":-7.329305,"longitude":108.355796},"popular":false,"timezone":7,"precedence":0},{"id":"5a977e7fb2b78c6734f17fd5","city":{"code":"Cianjur","name":"Cianjur","locator":null,"popular":false,"timezone":7},"code":"CJ","name":"Cianjur","type":"STATION","locator":{"latitude":-6.824591020773,"longitude":107.143026509262},"popular":false,"timezone":7,"precedence":0},{"id":"5a977e7fb2b78c6734f17fd4","city":{"code":"Cianjur","name":"Cianjur","locator":null,"popular":false,"timezone":7},"code":"CBB","name":"Cibeber","type":"STATION","locator":{"latitude":-6.937603361203,"longitude":107.121303407409},"popular":false,"timezone":7,"precedence":0},{"id":"5a977e7fb2b78c6734f17fd6","city":{"code":"Cianjur","name":"Cianjur","locator":null,"popular":false,"timezone":7},"code":"CLK","name":"Cilaku","type":"STATION","locator":{"latitude":-6.8245222,"longitude":107.1425235},"popular":false,"timezone":7,"precedence":0},{"id":"5a977e7fb2b78c6734f17fd7","city":{"code":"Cianjur","name":"Cianjur","locator":null,"popular":false,"timezone":7},"code":"LP","name":"Lampegan","type":"STATION","locator":{"latitude":-7.163687,"longitude":110.6356019},"popular":false,"timezone":7,"precedence":0},{"id":"5a977e7fb2b78c6734f17fd8","city":{"code":"Cikampek","name":"Cikampek","locator":null,"popular":false,"timezone":7},"code":"CKP","name":"Cikampek","type":"STATION","locator":{"latitude":-6.40671618691,"longitude":107.458802393848},"popular":false,"timezone":7,"precedence":0},{"id":"5a977e7fb2b78c6734f17fd9","city":{"code":"Cilacap","name":"Cilacap","locator":null,"popular":false,"timezone":7},"code":"CP","name":"Cilacap","type":"STATION","locator":{"latitude":-7.7361671,"longitude":109.006932},"popular":false,"timezone":7,"precedence":0},{"id":"5a977e80b2b78c6734f17fda","city":{"code":"Cilacap","name":"Cilacap","locator":null,"popular":false,"timezone":7},"code":"CPI","name":"Cipari","type":"STATION","locator":{"latitude":-7.440613901507,"longitude":108.760880139881},"popular":false,"timezone":7,"precedence":0},{"id":"5a977e80b2b78c6734f17fdb","city":{"code":"Cilacap","name":"Cilacap","locator":null,"popular":false,"timezone":7},"code":"GDM","name":"Gandrungmangun","type":"STATION","locator":{"latitude":-7.527746295552,"longitude":108.858726530094},"popular":false,"timezone":7,"precedence":0},{"id":"5a977e80b2b78c6734f17fe2","city":{"code":"Cilacap","name":"Cilacap","locator":null,"popular":false,"timezone":7},"code":"GM","name":"Gumilir","type":"STATION","locator":{"latitude":-7.6851609,"longitude":109.0424019},"popular":false,"timezone":7,"precedence":0},{"id":"5a977e80b2b78c6734f17fdc","city":{"code":"Cilacap","name":"Cilacap","locator":null,"popular":false,"timezone":7},"code":"JRL","name":"Jeruklegi","type":"STATION","locator":{"latitude":-7.622884,"longitude":109.018027},"popular":false,"timezone":7,"precedence":0},{"id":"5a977e80b2b78c6734f17fdd","city":{"code":"Cilacap","name":"Cilacap","locator":null,"popular":false,"timezone":7},"code":"KWG","name":"Kawunganten","type":"STATION","locator":{"latitude":-7.590806348179,"longitude":108.919277026371},"popular":false,"timezone":7,"precedence":0},{"id":"5a977e80b2b78c6734f17fde","city":{"code":"Cilacap","name":"Cilacap","locator":null,"popular":false,"timezone":7},"code":"KYA","name":"Kroya","type":"STATION","locator":{"latitude":-7.630252587615,"longitude":109.253526984707},"popular":false,"timezone":7,"precedence":0},{"id":"5a977e80b2b78c6734f17fdf","city":{"code":"Cilacap","name":"Cilacap","locator":null,"popular":false,"timezone":7},"code":"LBG","name":"Lebeng","type":"STATION","locator":{"latitude":-7.621307731879,"longitude":109.076464131282},"popular":false,"timezone":7,"precedence":0},{"id":"5a977e80b2b78c6734f17fe0","city":{"code":"Cilacap","name":"Cilacap","locator":null,"popular":false,"timezone":7},"code":"MA","name":"Maos","type":"STATION","locator":{"latitude":-7.61903,"longitude":109.139396},"popular":false,"timezone":7,"precedence":0},{"id":"5a977e80b2b78c6734f17fe1","city":{"code":"Cilacap","name":"Cilacap","locator":null,"popular":false,"timezone":7},"code":"MLW","name":"Meluwung","type":"STATION","locator":{"latitude":-7.394083809838,"longitude":108.699626871154},"popular":false,"timezone":7,"precedence":0},{"id":"5a977e80b2b78c6734f17fe3","city":{"code":"Cilacap","name":"Cilacap","locator":null,"popular":false,"timezone":7},"code":"SDR","name":"Sidareja","type":"STATION","locator":{"latitude":-7.486782,"longitude":108.807239},"popular":false,"timezone":7,"precedence":0},{"id":"5a977e80b2b78c6734f17fe4","city":{"code":"Cilacap","name":"Cilacap","locator":null,"popular":false,"timezone":7},"code":"SKP","name":"Sikampuh","type":"STATION","locator":{"latitude":-7.6872571,"longitude":109.0645969},"popular":false,"timezone":7,"precedence":0},{"id":"5a977e80b2b78c6734f17fe5","city":{"code":"Cilegon","name":"Cilegon","locator":null,"popular":false,"timezone":7},"code":"CLG","name":"Cilegon","type":"STATION","locator":{"latitude":-6.019535,"longitude":106.052681},"popular":false,"timezone":7,"precedence":0},{"id":"5a977e80b2b78c6734f17fe6","city":{"code":"Cilegon","name":"Cilegon","locator":null,"popular":false,"timezone":7},"code":"MER","name":"Merak","type":"STATION","locator":{"latitude":-5.930154659832,"longitude":105.99685182763},"popular":false,"timezone":7,"precedence":0},{"id":"5a977e80b2b78c6734f17fe7","city":{"code":"Cirebon","name":"Cirebon","locator":null,"popular":false,"timezone":7},"code":"AWN","name":"Arjawinangun","type":"STATION","locator":{"latitude":-6.644662565847,"longitude":108.414538177909},"popular":false,"timezone":7,"precedence":0},{"id":"5a977e80b2b78c6734f17fee","city":{"code":"Cirebon","name":"Cirebon","locator":null,"popular":false,"timezone":7},"code":"BBK","name":"Babakan","type":"STATION","locator":{"latitude":-6.860797,"longitude":108.719836},"popular":false,"timezone":7,"precedence":0},{"id":"5a977e80b2b78c6734f17fe8","city":{"code":"Cirebon","name":"Cirebon","locator":null,"popular":false,"timezone":7},"code":"CLD","name":"Ciledug","type":"STATION","locator":{"latitude":-6.903085889654,"longitude":108.743934874834},"popular":false,"timezone":7,"precedence":0},{"id":"5a977e80b2b78c6734f17fe9","city":{"code":"Cirebon","name":"Cirebon","locator":null,"popular":false,"timezone":7},"code":"CN","name":"Cirebon","type":"STATION","locator":{"latitude":-6.705427176273,"longitude":108.555330081597},"popular":false,"timezone":7,"precedence":0},{"id":"5a977e80b2b78c6734f17fea","city":{"code":"Cirebon","name":"Cirebon","locator":null,"popular":false,"timezone":7},"code":"CNP","name":"Cirebonprujakan","type":"STATION","locator":{"latitude":-6.719386344859,"longitude":108.558711055225},"popular":false,"timezone":7,"precedence":0},{"id":"5a977e80b2b78c6734f17feb","city":{"code":"Cirebon","name":"Cirebon","locator":null,"popular":false,"timezone":7},"code":"KRW","name":"Karangsuwung","type":"STATION","locator":{"latitude":-6.857850424529,"longitude":108.647750830688},"popular":false,"timezone":7,"precedence":0},{"id":"5a977e80b2b78c6734f17fec","city":{"code":"Cirebon","name":"Cirebon","locator":null,"popular":false,"timezone":7},"code":"LOS","name":"Losari","type":"STATION","locator":{"latitude":-6.846383982212,"longitude":108.798259304863},"popular":false,"timezone":7,"precedence":0},{"id":"5a977e80b2b78c6734f17fed","city":{"code":"Cirebon","name":"Cirebon","locator":null,"popular":false,"timezone":7},"code":"LWG","name":"Luwung","type":"STATION","locator":{"latitude":-6.777589891954,"longitude":108.593009804893},"popular":false,"timezone":7,"precedence":0},{"id":"5a977e80b2b78c6734f17fef","city":{"code":"Cirebon","name":"Cirebon","locator":null,"popular":false,"timezone":7},"code":"SDU","name":"Sindanglaut","type":"STATION","locator":{"latitude":-6.8327468,"longitude":108.6259749},"popular":false,"timezone":7,"precedence":0},{"id":"5a977e80b2b78c6734f17ff0","city":{"code":"Cirebon","name":"Cirebon","locator":null,"popular":false,"timezone":7},"code":"WDW","name":"Waruduwur","type":"STATION","locator":{"latitude":-6.7854722,"longitude":108.6253792},"popular":false,"timezone":7,"precedence":0},{"id":"6319624b31558438618b18ae","city":{"code":"Deli Serdang","name":"Deli Serdang","locator":null,"popular":false,"timezone":7},"code":"ARB","name":"Araskabu","type":"STATION","locator":{"latitude":3.6145498,"longitude":98.8293704},"popular":false,"timezone":7,"precedence":0},{"id":"5a977e80b2b78c6734f17ff1","city":{"code":"Deli Serdang","name":"Deli Serdang","locator":null,"popular":false,"timezone":7},"code":"LBP","name":"Lubukpakam","type":"STATION","locator":{"latitude":3.5638814,"longitude":98.8785957},"popular":false,"timezone":7,"precedence":0},{"id":"5a977e80b2b78c6734f17ff2","city":{"code":"Demak","name":"Demak","locator":null,"popular":false,"timezone":7},"code":"BBG","name":"Brumbung","type":"STATION","locator":{"latitude":-7.025717,"longitude":110.522047},"popular":false,"timezone":7,"precedence":0},{"id":"5a977e80b2b78c6734f17ff9","city":{"code":"Garut","name":"Garut","locator":null,"popular":false,"timezone":7},"code":"CB","name":"Cibatu","type":"STATION","locator":{"latitude":-7.1001147,"longitude":107.9794667},"popular":false,"timezone":7,"precedence":0},{"id":"5a977e80b2b78c6734f17ff4","city":{"code":"Garut","name":"Garut","locator":null,"popular":false,"timezone":7},"code":"CPD","name":"Cipeundeuy","type":"STATION","locator":{"latitude":-7.094568023749,"longitude":108.103182955047},"popular":false,"timezone":7,"precedence":0},{"id":"625533b0d87de100528cd2da","city":{"code":"Garut","name":"Garut","locator":null,"popular":false,"timezone":7},"code":"GRT","name":"Garut","type":"STATION","locator":{"latitude":107.90447033941598,"longitude":-7.213583406952179},"popular":false,"timezone":7,"precedence":0},{"id":"5a977e80b2b78c6734f17ff5","city":{"code":"Garut","name":"Garut","locator":null,"popular":false,"timezone":7},"code":"LBJ","name":"Lebakjero","type":"STATION","locator":{"latitude":-7.053602586982,"longitude":107.894006468751},"popular":false,"timezone":7,"precedence":0},{"id":"5a977e80b2b78c6734f17ff6","city":{"code":"Garut","name":"Garut","locator":null,"popular":false,"timezone":7},"code":"LL","name":"Leles","type":"STATION","locator":{"latitude":-7.085024914489,"longitude":107.900124235039},"popular":false,"timezone":7,"precedence":0},{"id":"5a977e80b2b78c6734f17ff7","city":{"code":"Garut","name":"Garut","locator":null,"popular":false,"timezone":7},"code":"NG","name":"Nagreg","type":"STATION","locator":{"latitude":-7.0187303675,"longitude":107.887291544982},"popular":false,"timezone":7,"precedence":0},{"id":"651e38c73860453076fb865e","city":{"code":"Garut","name":"Garut","locator":null,"popular":false,"timezone":7},"code":"PSJ","name":"Pasirjengkol","type":"STATION","locator":{"latitude":-7.128132051,"longitude":107.9924965},"popular":false,"timezone":7,"precedence":0},{"id":"651e38c73860453076fb865f","city":{"code":"Garut","name":"Garut","locator":null,"popular":false,"timezone":7},"code":"WNR","name":"Wanaraja","type":"STATION","locator":{"latitude":-7.164783038,"longitude":107.9769525},"popular":false,"timezone":7,"precedence":0},{"id":"5a977e80b2b78c6734f17ff8","city":{"code":"Garut","name":"Garut","locator":null,"popular":false,"timezone":7},"code":"WB","name":"Warungbandrek","type":"STATION","locator":{"latitude":-7.064903898733,"longitude":108.007259386577},"popular":false,"timezone":7,"precedence":0},{"id":"5a977e80b2b78c6734f17ffa","city":{"code":"Gombong","name":"Gombong","locator":null,"popular":false,"timezone":7},"code":"GB","name":"Gombong","type":"STATION","locator":{"latitude":-7.610922642163,"longitude":109.507770205609},"popular":false,"timezone":7,"precedence":0},{"id":"5a977e80b2b78c6734f17ffb","city":{"code":"Gombong","name":"Gombong","locator":null,"popular":false,"timezone":7},"code":"IJ","name":"Ijo","type":"STATION","locator":{"latitude":-7.615309511852,"longitude":109.4463734957},"popular":false,"timezone":7,"precedence":0},{"id":"5dc39dc4676cc134ae6ee658","city":{"code":"Grobogan","name":"Grobogan","locator":null,"popular":false,"timezone":7},"code":"GBN","name":"Gambringan","type":"STATION","locator":{"latitude":0,"longitude":0},"popular":false,"timezone":7,"precedence":0},{"id":"651e38c73860453076fb8660","city":{"code":"Grobogan","name":"Grobogan","locator":null,"popular":false,"timezone":7},"code":"GBN","name":"Gambringan","type":"STATION","locator":{"latitude":-7.143619927,"longitude":110.915086},"popular":false,"timezone":7,"precedence":0},{"id":"5a977e80b2b78c6734f17ffc","city":{"code":"Grobogan","name":"Grobogan","locator":null,"popular":false,"timezone":7},"code":"GD","name":"Gundih","type":"STATION","locator":{"latitude":-7.218755493439,"longitude":110.89993682209},"popular":false,"timezone":7,"precedence":0},{"id":"651e38c73860453076fb8661","city":{"code":"Grobogan","name":"Grobogan","locator":null,"popular":false,"timezone":7},"code":"JBN","name":"Jambon","type":"STATION","locator":{"latitude":-7.150109551,"longitude":111.0102998},"popular":false,"timezone":7,"precedence":0},{"id":"5a977e80b2b78c6734f17ffe","city":{"code":"Grobogan","name":"Grobogan","locator":null,"popular":false,"timezone":7},"code":"KGT","name":"Karangjati","type":"STATION","locator":{"latitude":-7.100169,"longitude":110.77725},"popular":false,"timezone":7,"precedence":0},{"id":"5a977e80b2b78c6734f17ffd","city":{"code":"Grobogan","name":"Grobogan","locator":null,"popular":false,"timezone":7},"code":"KEJ","name":"Kedungjati","type":"STATION","locator":{"latitude":-7.163535273997,"longitude":110.635640953373},"popular":false,"timezone":7,"precedence":0},{"id":"5a97d9c7b2b78c73bc6f4573","city":{"code":"Grobogan","name":"Grobogan","locator":null,"popular":false,"timezone":7},"code":"KNN","name":"Kradenan","type":"STATION","locator":{"latitude":-7.1530538,"longitude":111.14531036},"popular":false,"timezone":7,"precedence":0},{"id":"5a977e80b2b78c6734f17fff","city":{"code":"Grobogan","name":"Grobogan","locator":null,"popular":false,"timezone":7},"code":"NBO","name":"Ngrombo","type":"STATION","locator":{"latitude":-7.145417502727,"longitude":110.900776606151},"popular":false,"timezone":7,"precedence":0},{"id":"5a977e80b2b78c6734f18000","city":{"code":"Indramayu","name":"Indramayu","locator":null,"popular":false,"timezone":7},"code":"CLH","name":"Cilegeh","type":"STATION","locator":{"latitude":-6.463904963799,"longitude":108.035592991401},"popular":false,"timezone":7,"precedence":0},{"id":"5a977e80b2b78c6734f18001","city":{"code":"Indramayu","name":"Indramayu","locator":null,"popular":false,"timezone":7},"code":"HGL","name":"Haurgeulis","type":"STATION","locator":{"latitude":-6.458579206065,"longitude":107.940903813491},"popular":false,"timezone":7,"precedence":0},{"id":"5a977e80b2b78c6734f18002","city":{"code":"Indramayu","name":"Indramayu","locator":null,"popular":false,"timezone":7},"code":"JTB","name":"Jatibarang","type":"STATION","locator":{"latitude":-6.473090841262,"longitude":108.306331901206},"popular":false,"timezone":7,"precedence":0},{"id":"5a977e80b2b78c6734f18003","city":{"code":"Indramayu","name":"Indramayu","locator":null,"popular":false,"timezone":7},"code":"KAB","name":"Kadokangabus","type":"STATION","locator":{"latitude":-6.467784013761,"longitude":108.106883597553},"popular":false,"timezone":7,"precedence":0},{"id":"5a977e80b2b78c6734f18004","city":{"code":"Indramayu","name":"Indramayu","locator":null,"popular":false,"timezone":7},"code":"KTM","name":"Kertasemaya","type":"STATION","locator":{"latitude":-6.52908282964,"longitude":108.353560381614},"popular":false,"timezone":7,"precedence":0},{"id":"5a977e80b2b78c6734f18005","city":{"code":"Indramayu","name":"Indramayu","locator":null,"popular":false,"timezone":7},"code":"TIS","name":"Terisi Sekali","type":"STATION","locator":{"latitude":-6.469668886928,"longitude":108.160297489583},"popular":false,"timezone":7,"precedence":0},{"id":"5a977e80b2b78c6734f18006","city":{"code":"Jakarta","name":"Jakarta","locator":null,"popular":true,"timezone":7},"code":"GMR","name":"Gambir","type":"STATION","locator":{"latitude":-6.176667,"longitude":106.830552},"popular":true,"timezone":7,"precedence":0},{"id":"5a977e80b2b78c6734f18007","city":{"code":"Jakarta","name":"Jakarta","locator":null,"popular":false,"timezone":7},"code":"JAKK","name":"Jakarta Kota","type":"STATION","locator":{"latitude":-6.137585005551,"longitude":106.814679606151},"popular":false,"timezone":7,"precedence":0},{"id":"5a977e80b2b78c6734f18008","city":{"code":"Jakarta","name":"Jakarta","locator":null,"popular":false,"timezone":7},"code":"JNG","name":"Jatinegara","type":"STATION","locator":{"latitude":-6.215046,"longitude":106.870189},"popular":false,"timezone":7,"precedence":0},{"id":"5a977e80b2b78c6734f18009","city":{"code":"Jakarta","name":"Jakarta","locator":null,"popular":false,"timezone":7},"code":"MRI","name":"Manggarai","type":"STATION","locator":{"latitude":-6.210409649829,"longitude":106.849942402446},"popular":false,"timezone":7,"precedence":0},{"id":"5a977e80b2b78c6734f1800a","city":{"code":"Jakarta","name":"Jakarta","locator":null,"popular":false,"timezone":7},"code":"PSE","name":"Pasar Senen","type":"STATION","locator":{"latitude":-6.17427,"longitude":106.8441},"popular":false,"timezone":7,"precedence":0},{"id":"5a977e80b2b78c6734f1800b","city":{"code":"Jakarta","name":"Jakarta","locator":null,"popular":false,"timezone":7},"code":"THB","name":"Tanah Abang","type":"STATION","locator":{"latitude":-6.185717,"longitude":106.810732},"popular":false,"timezone":7,"precedence":0},{"id":"5a977e80b2b78c6734f1800c","city":{"code":"Jakarta","name":"Jakarta","locator":null,"popular":false,"timezone":7},"code":"TPK","name":"Tanjung Priuk","type":"STATION","locator":{"latitude":-6.110872,"longitude":106.881138},"popular":false,"timezone":7,"precedence":0},{"id":"5a977e80b2b78c6734f1800d","city":{"code":"Jatibarang","name":"Jatibarang","locator":null,"popular":false,"timezone":7},"code":"BDW","name":"Bangoduwa","type":"STATION","locator":{"latitude":-6.662976332046,"longitude":108.460100930059},"popular":false,"timezone":7,"precedence":0},{"id":"651e38c73860453076fb8662","city":{"code":"Jember","name":"Jember","locator":null,"popular":false,"timezone":7},"code":"AJ","name":"Arjasa","type":"STATION","locator":{"latitude":-8.12915727,"longitude":113.7427486},"popular":false,"timezone":7,"precedence":0},{"id":"5a977e80b2b78c6734f1800f","city":{"code":"Jember","name":"Jember","locator":null,"popular":false,"timezone":7},"code":"JTR","name":"Jatiroto","type":"STATION","locator":{"latitude":-8.123178,"longitude":113.36412},"popular":false,"timezone":7,"precedence":0},{"id":"5a977e80b2b78c6734f1800e","city":{"code":"Jember","name":"Jember","locator":null,"popular":false,"timezone":7},"code":"JR","name":"Jember","type":"STATION","locator":{"latitude":-8.165266,"longitude":113.70298},"popular":false,"timezone":7,"precedence":0},{"id":"5a977e80b2b78c6734f18010","city":{"code":"Jember","name":"Jember","locator":null,"popular":false,"timezone":7},"code":"KLT","name":"Kalisat","type":"STATION","locator":{"latitude":-8.126681,"longitude":113.81224},"popular":false,"timezone":7,"precedence":0},{"id":"5a977e80b2b78c6734f18011","city":{"code":"Jember","name":"Jember","locator":null,"popular":false,"timezone":7},"code":"RBP","name":"Rambipuji","type":"STATION","locator":{"latitude":-8.203193,"longitude":113.614344},"popular":false,"timezone":7,"precedence":0},{"id":"5a977e80b2b78c6734f18012","city":{"code":"Jember","name":"Jember","locator":null,"popular":false,"timezone":7},"code":"TGL","name":"Tanggul","type":"STATION","locator":{"latitude":-8.162731,"longitude":113.448281},"popular":false,"timezone":7,"precedence":0},{"id":"5a977e80b2b78c6734f18013","city":{"code":"Jombang","name":"Jombang","locator":null,"popular":false,"timezone":7},"code":"JG","name":"Jombang","type":"STATION","locator":{"latitude":-7.558006,"longitude":112.233654},"popular":false,"timezone":7,"precedence":0},{"id":"5a977e80b2b78c6734f18014","city":{"code":"Jombang","name":"Jombang","locator":null,"popular":false,"timezone":7},"code":"SMB","name":"Sembung","type":"STATION","locator":{"latitude":-7.582768,"longitude":112.167006},"popular":false,"timezone":7,"precedence":0},{"id":"5a97f1a3b2b78c73bc6f4575","city":{"code":"Karawang","name":"Karawang","locator":null,"popular":false,"timezone":7},"code":"KW","name":"Karawang","type":"STATION","locator":{"latitude":-6.30770823,"longitude":107.29948491},"popular":false,"timezone":7,"precedence":0},{"id":"5a977e80b2b78c6734f18015","city":{"code":"Kebumen","name":"Kebumen","locator":null,"popular":false,"timezone":7},"code":"KA","name":"Karanganyar","type":"STATION","locator":{"latitude":-7.633149499705,"longitude":109.573505209821},"popular":false,"timezone":7,"precedence":0},{"id":"5a977e80b2b78c6734f18016","city":{"code":"Kebumen","name":"Kebumen","locator":null,"popular":false,"timezone":7},"code":"KM","name":"Kebumen","type":"STATION","locator":{"latitude":-7.681980338286,"longitude":109.662131720237},"popular":false,"timezone":7,"precedence":0},{"id":"5a977e80b2b78c6734f18017","city":{"code":"Kebumen","name":"Kebumen","locator":null,"popular":false,"timezone":7},"code":"KWN","name":"Kutowinangun","type":"STATION","locator":{"latitude":-7.716934125551,"longitude":109.734217078538},"popular":false,"timezone":7,"precedence":0},{"id":"5a977e80b2b78c6734f18018","city":{"code":"Kebumen","name":"Kebumen","locator":null,"popular":false,"timezone":7},"code":"PRB","name":"Prembun","type":"STATION","locator":{"latitude":-7.724386492953,"longitude":109.798132031911},"popular":false,"timezone":7,"precedence":0},{"id":"5a977e80b2b78c6734f1801a","city":{"code":"Kebumen","name":"Kebumen","locator":null,"popular":false,"timezone":7},"code":"SRW","name":"Sruweng","type":"STATION","locator":{"latitude":-7.6552015,"longitude":109.6029011},"popular":false,"timezone":7,"precedence":0},{"id":"5a977e80b2b78c6734f18019","city":{"code":"Kebumen","name":"Kebumen","locator":null,"popular":false,"timezone":7},"code":"WNS","name":"Wonosari","type":"STATION","locator":{"latitude":-7.697393071167,"longitude":109.701286784061},"popular":false,"timezone":7,"precedence":0},{"id":"5a977e80b2b78c6734f1801b","city":{"code":"Kediri","name":"Kediri","locator":null,"popular":false,"timezone":7},"code":"KD","name":"Kediri","type":"STATION","locator":{"latitude":-7.817361066106,"longitude":112.015269566218},"popular":false,"timezone":7,"precedence":0},{"id":"5a977e80b2b78c6734f1801c","city":{"code":"Kediri","name":"Kediri","locator":null,"popular":false,"timezone":7},"code":"PPR","name":"Papar","type":"STATION","locator":{"latitude":-7.697741114481,"longitude":112.079449300594},"popular":false,"timezone":7,"precedence":0},{"id":"5a977e80b2b78c6734f1801d","city":{"code":"Kendal","name":"Kendal","locator":null,"popular":false,"timezone":7},"code":"KBD","name":"Kalibodri","type":"STATION","locator":{"latitude":-6.973557936513,"longitude":110.148167195106},"popular":false,"timezone":7,"precedence":0},{"id":"5a977e80b2b78c6734f1801e","city":{"code":"Kendal","name":"Kendal","locator":null,"popular":false,"timezone":7},"code":"KLN","name":"Kaliwungu","type":"STATION","locator":{"latitude":-6.959718494662,"longitude":110.25483267915},"popular":false,"timezone":7,"precedence":0},{"id":"5a977e80b2b78c6734f1801f","city":{"code":"Kendal","name":"Kendal","locator":null,"popular":false,"timezone":7},"code":"WLR","name":"Weleri","type":"STATION","locator":{"latitude":-6.970759803761,"longitude":110.069627380287},"popular":false,"timezone":7,"precedence":0},{"id":"5a977e80b2b78c6734f18020","city":{"code":"Kisaran","name":"Kisaran","locator":null,"popular":false,"timezone":7},"code":"KIS","name":"Kisaran","type":"STATION","locator":{"latitude":2.986456667,"longitude":99.61960667},"popular":false,"timezone":7,"precedence":0},{"id":"5a977e80b2b78c6734f18021","city":{"code":"Klaten","name":"Klaten","locator":null,"popular":false,"timezone":7},"code":"KT","name":"Klaten","type":"STATION","locator":{"latitude":-7.712314503602,"longitude":110.602979},"popular":false,"timezone":7,"precedence":0},{"id":"5a977e80b2b78c6734f18022","city":{"code":"Klaten","name":"Klaten","locator":null,"popular":false,"timezone":7},"code":"SWT","name":"Srowot","type":"STATION","locator":{"latitude":-7.7413394,"longitude":110.5490728},"popular":false,"timezone":7,"precedence":0},{"id":"5a977e80b2b78c6734f18023","city":{"code":"Kotabumi","name":"Kotabumi","locator":null,"popular":false,"timezone":7},"code":"MP","name":"Martapura","type":"STATION","locator":{"latitude":-4.31632,"longitude":104.346818},"popular":false,"timezone":7,"precedence":0},{"id":"651e38c73860453076fb8663","city":{"code":"KulonProgo","name":"KulonProgo","locator":null,"popular":false,"timezone":7},"code":"KDG","name":"Kedundang","type":"STATION","locator":{"latitude":-7.87825028,"longitude":110.0995571},"popular":false,"timezone":7,"precedence":0},{"id":"5a977e80b2b78c6734f18024","city":{"code":"Kutoarjo","name":"Kutoarjo","locator":null,"popular":false,"timezone":7},"code":"KTA","name":"Kutoarjo","type":"STATION","locator":{"latitude":-7.726014034333,"longitude":109.907109415083},"popular":false,"timezone":7,"precedence":0},{"id":"5a977e80b2b78c6734f18026","city":{"code":"Lahat","name":"Lahat","locator":null,"popular":false,"timezone":7},"code":"BGM","name":"Bungamas","type":"STATION","locator":{"latitude":-3.7031731,"longitude":103.3681596},"popular":false,"timezone":7,"precedence":0},{"id":"5a977e80b2b78c6734f18025","city":{"code":"Lahat","name":"Lahat","locator":null,"popular":false,"timezone":7},"code":"LT","name":"Lahat","type":"STATION","locator":{"latitude":-7.808332,"longitude":110.274286},"popular":false,"timezone":7,"precedence":0},{"id":"5a977e80b2b78c6734f18027","city":{"code":"Lahat","name":"Lahat","locator":null,"popular":false,"timezone":7},"code":"SNA","name":"Saungnaga","type":"STATION","locator":{"latitude":-3.626333,"longitude":103.1893},"popular":false,"timezone":7,"precedence":0},{"id":"6319624b31558438618b18ba","city":{"code":"Lahat","name":"Lahat","locator":null,"popular":false,"timezone":7},"code":"SUA","name":"Sukaraja","type":"STATION","locator":{"latitude":-3.6636389,"longitude":103.2545447},"popular":false,"timezone":7,"precedence":0},{"id":"5a977e80b2b78c6734f18028","city":{"code":"Lahat","name":"Lahat","locator":null,"popular":false,"timezone":7},"code":"TI","name":"Tebingtinggi","type":"STATION","locator":{"latitude":-3.591977,"longitude":103.084772},"popular":false,"timezone":7,"precedence":0},{"id":"5a977e80b2b78c6734f18029","city":{"code":"Lamongan","name":"Lamongan","locator":null,"popular":false,"timezone":7},"code":"BBT","name":"Babat","type":"STATION","locator":{"latitude":-7.106237,"longitude":112.168816},"popular":false,"timezone":7,"precedence":0},{"id":"5a977e80b2b78c6734f1802a","city":{"code":"Lamongan","name":"Lamongan","locator":null,"popular":false,"timezone":7},"code":"LMG","name":"Lamongan","type":"STATION","locator":{"latitude":-7.112428,"longitude":112.420167},"popular":false,"timezone":7,"precedence":0},{"id":"5a977e80b2b78c6734f1802c","city":{"code":"Lampung","name":"Lampung","locator":null,"popular":false,"timezone":7},"code":"BKI","name":"Bekri","type":"STATION","locator":{"latitude":-5.072747,"longitude":105.136021},"popular":false,"timezone":7,"precedence":0},{"id":"651e38c73860453076fb8664","city":{"code":"Lampung","name":"Lampung","locator":null,"popular":false,"timezone":7},"code":"BBA","name":"Blambanganpagar","type":"STATION","locator":{"latitude":-4.89499383,"longitude":105.0401863},"popular":false,"timezone":7,"precedence":0},{"id":"5a977e80b2b78c6734f1802d","city":{"code":"Lampung","name":"Lampung","locator":null,"popular":false,"timezone":7},"code":"BBU","name":"Blambanganumpu","type":"STATION","locator":{"latitude":-4.4982055,"longitude":104.5201786},"popular":false,"timezone":7,"precedence":0},{"id":"6319624b31558438618b18aa","city":{"code":"Lampung","name":"Lampung","locator":null,"popular":false,"timezone":7},"code":"CEP","name":"Cempaka","type":"STATION","locator":{"latitude":-4.7937218,"longitude":104.8020814},"popular":false,"timezone":7,"precedence":0},{"id":"5a977e80b2b78c6734f1802e","city":{"code":"Lampung","name":"Lampung","locator":null,"popular":false,"timezone":7},"code":"GHM","name":"Giham","type":"STATION","locator":{"latitude":-4.420515,"longitude":104.493893},"popular":false,"timezone":7,"precedence":0},{"id":"6319624b31558438618b18ab","city":{"code":"Lampung","name":"Lampung","locator":null,"popular":false,"timezone":7},"code":"HJP","name":"Hajipemanggilan","type":"STATION","locator":{"latitude":-5.0020698,"longitude":105.0894204},"popular":false,"timezone":7,"precedence":0},{"id":"6319624b31558438618b18ac","city":{"code":"Lampung","name":"Lampung","locator":null,"popular":false,"timezone":7},"code":"KAG","name":"Kalibalangan","type":"STATION","locator":{"latitude":-4.8665786,"longitude":104.9552336},"popular":false,"timezone":7,"precedence":0},{"id":"6319624b31558438618b18a5","city":{"code":"Lampung","name":"Lampung","locator":null,"popular":false,"timezone":7},"code":"KTP","name":"Ketapang","type":"STATION","locator":{"latitude":-4.7173738,"longitude":104.7810714},"popular":false,"timezone":7,"precedence":0},{"id":"5a977e80b2b78c6734f1802f","city":{"code":"Lampung","name":"Lampung","locator":null,"popular":false,"timezone":7},"code":"KB","name":"Kotabumi","type":"STATION","locator":{"latitude":-4.821914,"longitude":104.881186},"popular":false,"timezone":7,"precedence":0},{"id":"6319624b31558438618b18b5","city":{"code":"Lampung","name":"Lampung","locator":null,"popular":false,"timezone":7},"code":"LAR","name":"Labuanratu","type":"STATION","locator":{"latitude":-5.3725538,"longitude":105.2347893},"popular":false,"timezone":7,"precedence":0},{"id":"6319624b31558438618b18a9","city":{"code":"Lampung","name":"Lampung","locator":null,"popular":false,"timezone":7},"code":"NRR","name":"Negara Ratu","type":"STATION","locator":{"latitude":-4.6568618,"longitude":104.7200874},"popular":false,"timezone":7,"precedence":0},{"id":"6319624b31558438618b18b2","city":{"code":"Lampung","name":"Lampung","locator":null,"popular":false,"timezone":7},"code":"NGN","name":"Negeri Agung","type":"STATION","locator":{"latitude":-4.5723768,"longitude":104.5885634},"popular":false,"timezone":7,"precedence":0},{"id":"6319624b31558438618b18ad","city":{"code":"Lampung","name":"Lampung","locator":null,"popular":false,"timezone":7},"code":"PGG","name":"Pagargunung","type":"STATION","locator":{"latitude":-3.6872557,"longitude":104.2997772},"popular":false,"timezone":7,"precedence":0},{"id":"5a97f204b2b78c73bc6f457a","city":{"code":"Lampung","name":"Lampung","locator":null,"popular":false,"timezone":7},"code":"RJS","name":"Rejosari","type":"STATION","locator":{"latitude":-5.29517618,"longitude":105.18640122},"popular":false,"timezone":7,"precedence":0},{"id":"6319624b31558438618b18b4","city":{"code":"Lampung","name":"Lampung","locator":null,"popular":false,"timezone":7},"code":"SLS","name":"Sulusuban","type":"STATION","locator":{"latitude":-4.9458784,"longitude":105.0656211},"popular":false,"timezone":7,"precedence":0},{"id":"6319624b31558438618b18b7","city":{"code":"Lampung","name":"Lampung","locator":null,"popular":false,"timezone":7},"code":"TJR","name":"Tanjungrambang","type":"STATION","locator":{"latitude":-3.5439928,"longitude":104.2443764},"popular":false,"timezone":7,"precedence":0},{"id":"5a977e80b2b78c6734f1802b","city":{"code":"Lampung","name":"Lampung","locator":null,"popular":false,"timezone":7},"code":"TNK","name":"Tanjung Karang","type":"STATION","locator":{"latitude":-5.40791653,"longitude":105.2604491},"popular":false,"timezone":7,"precedence":0},{"id":"6319624b31558438618b18b3","city":{"code":"Lampung","name":"Lampung","locator":null,"popular":false,"timezone":7},"code":"TGI","name":"Tegineneng","type":"STATION","locator":{"latitude":-5.2022708,"longitude":105.1545224},"popular":false,"timezone":7,"precedence":0},{"id":"6319624b31558438618b18b0","city":{"code":"Lampung","name":"Lampung","locator":null,"popular":false,"timezone":7},"code":"TJH","name":"Tigagajah","type":"STATION","locator":{"latitude":-4.1114197,"longitude":104.1508294},"popular":false,"timezone":7,"precedence":0},{"id":"5a977e80b2b78c6734f18030","city":{"code":"Lampung","name":"Lampung","locator":null,"popular":false,"timezone":7},"code":"TLY","name":"Tulungbuyut","type":"STATION","locator":{"latitude":-4.625958,"longitude":104.664165},"popular":false,"timezone":7,"precedence":0},{"id":"651e38c73860453076fb8666","city":{"code":"Lampung","name":"Lampung","locator":null,"popular":false,"timezone":7},"code":"WAP","name":"Waypisang","type":"STATION","locator":{"latitude":-4.349668582,"longitude":104.3878986},"popular":false,"timezone":7,"precedence":0},{"id":"6319624b31558438618b18a7","city":{"code":"Lampung","name":"Lampung","locator":null,"popular":false,"timezone":7},"code":"WAY","name":"Waytuba","type":"STATION","locator":{"latitude":-4.36453,"longitude":104.3619689},"popular":false,"timezone":7,"precedence":0},{"id":"5a977e80b2b78c6734f18031","city":{"code":"Lebak","name":"Lebak","locator":null,"popular":false,"timezone":7},"code":"RK","name":"Rangkasbitung","type":"STATION","locator":{"latitude":-6.352643,"longitude":106.251274},"popular":false,"timezone":7,"precedence":0},{"id":"5a977e80b2b78c6734f18034","city":{"code":"Lubuk Linggau","name":"Lubuk Linggau","locator":null,"popular":false,"timezone":7},"code":"KOP","name":"Kotapadang","type":"STATION","locator":{"latitude":-3.426666,"longitude":102.966},"popular":false,"timezone":7,"precedence":0},{"id":"5a977e80b2b78c6734f18033","city":{"code":"Lubuk Linggau","name":"Lubuk Linggau","locator":null,"popular":false,"timezone":7},"code":"LLG","name":"Lubuk Linggau","type":"STATION","locator":{"latitude":-7.808332,"longitude":110.274286},"popular":false,"timezone":7,"precedence":0},{"id":"5a977e80b2b78c6734f18035","city":{"code":"Lubuk Linggau","name":"Lubuk Linggau","locator":null,"popular":false,"timezone":7},"code":"MSL","name":"Muarasaling","type":"STATION","locator":{"latitude":-3.43,"longitude":103.039},"popular":false,"timezone":7,"precedence":0},{"id":"5a977e80b2b78c6734f18036","city":{"code":"Lumajang","name":"Lumajang","locator":null,"popular":false,"timezone":7},"code":"KK","name":"Klakah","type":"STATION","locator":{"latitude":-7.994107,"longitude":113.249364},"popular":false,"timezone":7,"precedence":0},{"id":"651e38c73860453076fb8665","city":{"code":"Lumajang","name":"Lumajang","locator":null,"popular":false,"timezone":7},"code":"RN","name":"Ranuyoso","type":"STATION","locator":{"latitude":-7.954220529,"longitude":113.2377858},"popular":false,"timezone":7,"precedence":0},{"id":"5a977e80b2b78c6734f18037","city":{"code":"Madiun","name":"Madiun","locator":null,"popular":false,"timezone":7},"code":"CRB","name":"Caruban","type":"STATION","locator":{"latitude":-7.551182062774,"longitude":111.654902257776},"popular":false,"timezone":7,"precedence":0},{"id":"5a97f1cfb2b78c73bc6f4577","city":{"code":"Madiun","name":"Madiun","locator":null,"popular":false,"timezone":7},"code":"MN","name":"Madiun","type":"STATION","locator":{"latitude":-7.62017724,"longitude":111.52348617},"popular":false,"timezone":7,"precedence":0},{"id":"5dc39dc4676cc134ae6ee65a","city":{"code":"Madiun","name":"Madiun","locator":null,"popular":false,"timezone":7},"code":"NGW","name":"Ngawi","type":"STATION","locator":{"latitude":-7.441823848774,"longitude":111.385671005249},"popular":false,"timezone":7,"precedence":0},{"id":"5a977e80b2b78c6734f18038","city":{"code":"Madiun","name":"Madiun","locator":null,"popular":false,"timezone":7},"code":"PA","name":"Paron","type":"STATION","locator":{"latitude":-7.441823848774,"longitude":111.385671005249},"popular":false,"timezone":7,"precedence":0},{"id":"5a977e80b2b78c6734f18039","city":{"code":"Madiun","name":"Madiun","locator":null,"popular":false,"timezone":7},"code":"SRD","name":"Saradan","type":"STATION","locator":{"latitude":-7.547566671547,"longitude":111.732092070747},"popular":false,"timezone":7,"precedence":0},{"id":"5a977e80b2b78c6734f1803a","city":{"code":"Magetan","name":"Magetan","locator":null,"popular":false,"timezone":7},"code":"BAT","name":"Barat","type":"STATION","locator":{"latitude":-7.562227944047,"longitude":111.450943758266},"popular":false,"timezone":7,"precedence":0},{"id":"5dc39dc4676cc134ae6ee656","city":{"code":"Magetan","name":"Magetan","locator":null,"popular":false,"timezone":7},"code":"MAG","name":"Magetan","type":"STATION","locator":{"latitude":-7.562227944047,"longitude":111.450943758266},"popular":false,"timezone":7,"precedence":0},{"id":"5a977e80b2b78c6734f1803f","city":{"code":"Malang","name":"Malang","locator":null,"popular":false,"timezone":7},"code":"BMG","name":"Blimbing","type":"STATION","locator":{"latitude":-7.9400006,"longitude":112.649512},"popular":false,"timezone":7,"precedence":0},{"id":"5a977e80b2b78c6734f1803b","city":{"code":"Malang","name":"Malang","locator":null,"popular":false,"timezone":7},"code":"KPN","name":"Kepanjen","type":"STATION","locator":{"latitude":-8.132054104774,"longitude":112.573221332506},"popular":false,"timezone":7,"precedence":0},{"id":"5a977e80b2b78c6734f1803c","city":{"code":"Malang","name":"Malang","locator":null,"popular":false,"timezone":7},"code":"LW","name":"Lawang","type":"STATION","locator":{"latitude":-7.836558771241,"longitude":112.697640149056},"popular":false,"timezone":7,"precedence":0},{"id":"5a977e80b2b78c6734f1803d","city":{"code":"Malang","name":"Malang","locator":null,"popular":false,"timezone":7},"code":"ML","name":"Malang","type":"STATION","locator":{"latitude":-7.977681,"longitude":112.637325},"popular":false,"timezone":7,"precedence":0},{"id":"5a977e80b2b78c6734f1803e","city":{"code":"Malang","name":"Malang","locator":null,"popular":false,"timezone":7},"code":"MLK","name":"Malang Kotalama","type":"STATION","locator":{"latitude":-7.994832,"longitude":112.63243},"popular":false,"timezone":7,"precedence":0},{"id":"6319624b31558438618b18b1","city":{"code":"Malang","name":"Malang","locator":null,"popular":false,"timezone":7},"code":"NB","name":"Ngebruk","type":"STATION","locator":{"latitude":-8.1518357,"longitude":112.4992926},"popular":false,"timezone":7,"precedence":0},{"id":"5a977e80b2b78c6734f18040","city":{"code":"Malang","name":"Malang","locator":null,"popular":false,"timezone":7},"code":"SBP","name":"Sumberpucung","type":"STATION","locator":{"latitude":-7.994898,"longitude":112.632544},"popular":false,"timezone":7,"precedence":0},{"id":"5a977e80b2b78c6734f18041","city":{"code":"Medan","name":"Medan","locator":null,"popular":false,"timezone":7},"code":"AKB","name":"Aekloba","type":"STATION","locator":{"latitude":2.803831794121,"longitude":99.592969238281},"popular":false,"timezone":7,"precedence":0},{"id":"5a977e80b2b78c6734f18044","city":{"code":"Medan","name":"Medan","locator":null,"popular":false,"timezone":7},"code":"BJL","name":"Bajalinggei","type":"STATION","locator":{"latitude":3.1674047,"longitude":99.1109276},"popular":false,"timezone":7,"precedence":0},{"id":"5a977e80b2b78c6734f18045","city":{"code":"Medan","name":"Medan","locator":null,"popular":false,"timezone":7},"code":"BAP","name":"Bandarkalipah","type":"STATION","locator":{"latitude":3.59377,"longitude":98.754953},"popular":false,"timezone":7,"precedence":0},{"id":"5a977e80b2b78c6734f18046","city":{"code":"Medan","name":"Medan","locator":null,"popular":false,"timezone":7},"code":"BDT","name":"Bandartinggi","type":"STATION","locator":{"latitude":3.284488,"longitude":99.30385},"popular":false,"timezone":7,"precedence":0},{"id":"5a977e80b2b78c6734f18047","city":{"code":"Medan","name":"Medan","locator":null,"popular":false,"timezone":7},"code":"BTK","name":"Batangkuis","type":"STATION","locator":{"latitude":3.611894,"longitude":98.801753},"popular":false,"timezone":7,"precedence":0},{"id":"5a977e80b2b78c6734f18048","city":{"code":"Medan","name":"Medan","locator":null,"popular":false,"timezone":7},"code":"DMR","name":"Dolokmerangir","type":"STATION","locator":{"latitude":3.117554,"longitude":99.117114},"popular":false,"timezone":7,"precedence":0},{"id":"5a977e80b2b78c6734f18049","city":{"code":"Medan","name":"Medan","locator":null,"popular":false,"timezone":7},"code":"HL","name":"Hengelo","type":"STATION","locator":{"latitude":2.859075,"longitude":99.639241},"popular":false,"timezone":7,"precedence":0},{"id":"5a977e80b2b78c6734f1804a","city":{"code":"Medan","name":"Medan","locator":null,"popular":false,"timezone":7},"code":"LMP","name":"Limapuluh","type":"STATION","locator":{"latitude":3.173279,"longitude":99.412637},"popular":false,"timezone":7,"precedence":0},{"id":"5a977e80b2b78c6734f18042","city":{"code":"Medan","name":"Medan","locator":null,"popular":false,"timezone":7},"code":"MDN","name":"Medan","type":"STATION","locator":{"latitude":3.587948333,"longitude":98.681075},"popular":false,"timezone":7,"precedence":0},{"id":"5a977e80b2b78c6734f1804b","city":{"code":"Medan","name":"Medan","locator":null,"popular":false,"timezone":7},"code":"MBM","name":"Membangmuda","type":"STATION","locator":{"latitude":2.5722041,"longitude":99.6520696},"popular":false,"timezone":7,"precedence":0},{"id":"5a977e80b2b78c6734f1804c","city":{"code":"Medan","name":"Medan","locator":null,"popular":false,"timezone":7},"code":"PHA","name":"Padanghalaban","type":"STATION","locator":{"latitude":2.314036,"longitude":99.820737},"popular":false,"timezone":7,"precedence":0},{"id":"5a977e80b2b78c6734f1804d","city":{"code":"Medan","name":"Medan","locator":null,"popular":false,"timezone":7},"code":"PME","name":"Pamingke","type":"STATION","locator":{"latitude":2.415151,"longitude":99.7305683},"popular":false,"timezone":7,"precedence":0},{"id":"5a977e80b2b78c6734f1804e","city":{"code":"Medan","name":"Medan","locator":null,"popular":false,"timezone":7},"code":"PBA","name":"Perbaungan","type":"STATION","locator":{"latitude":3.5668858,"longitude":98.9512652},"popular":false,"timezone":7,"precedence":0},{"id":"5a977e80b2b78c6734f1804f","city":{"code":"Medan","name":"Medan","locator":null,"popular":false,"timezone":7},"code":"PRA","name":"Perlanaan","type":"STATION","locator":{"latitude":3.175661,"longitude":99.36264252},"popular":false,"timezone":7,"precedence":0},{"id":"5a977e80b2b78c6734f18050","city":{"code":"Medan","name":"Medan","locator":null,"popular":false,"timezone":7},"code":"PUR","name":"Puluraja","type":"STATION","locator":{"latitude":2.697367,"longitude":99.6148183},"popular":false,"timezone":7,"precedence":0},{"id":"5a977e80b2b78c6734f18051","city":{"code":"Medan","name":"Medan","locator":null,"popular":false,"timezone":7},"code":"SBJ","name":"Sei Bejangkar","type":"STATION","locator":{"latitude":3.106104,"longitude":99.5550523},"popular":false,"timezone":7,"precedence":0},{"id":"5a977e80b2b78c6734f18043","city":{"code":"Medan","name":"Medan","locator":null,"popular":false,"timezone":7},"code":"TBI","name":"Tebing Tinggi","type":"STATION","locator":{"latitude":3.327336667,"longitude":99.16854833},"popular":false,"timezone":7,"precedence":0},{"id":"5a977e80b2b78c6734f18052","city":{"code":"Mojokerto","name":"Mojokerto","locator":null,"popular":false,"timezone":7},"code":"MR","name":"Mojokerto","type":"STATION","locator":{"latitude":-7.472437,"longitude":112.433851},"popular":false,"timezone":7,"precedence":0},{"id":"5a977e80b2b78c6734f18053","city":{"code":"Muara Enim","name":"Muara Enim","locator":null,"popular":false,"timezone":7},"code":"ME","name":"Muara Enim","type":"STATION","locator":{"latitude":-3.652732,"longitude":103.7739863},"popular":false,"timezone":7,"precedence":0},{"id":"5a977e80b2b78c6734f18054","city":{"code":"Muara Enim","name":"Muara Enim","locator":null,"popular":false,"timezone":7},"code":"UJM","name":"Ujanmas","type":"STATION","locator":{"latitude":-3.5322431,"longitude":103.7741047},"popular":false,"timezone":7,"precedence":0},{"id":"5a977e80b2b78c6734f18058","city":{"code":"Nganjuk","name":"Nganjuk","locator":null,"popular":false,"timezone":7},"code":"BGR","name":"Bagor","type":"STATION","locator":{"latitude":-7.57161,"longitude":111.85272},"popular":false,"timezone":7,"precedence":0},{"id":"5a977e80b2b78c6734f18055","city":{"code":"Nganjuk","name":"Nganjuk","locator":null,"popular":false,"timezone":7},"code":"BRN","name":"Baron","type":"STATION","locator":{"latitude":-7.602833,"longitude":112.038966},"popular":false,"timezone":7,"precedence":0},{"id":"5a977e80b2b78c6734f18056","city":{"code":"Nganjuk","name":"Nganjuk","locator":null,"popular":false,"timezone":7},"code":"KTS","name":"Kertosono","type":"STATION","locator":{"latitude":-7.592182,"longitude":112.100547},"popular":false,"timezone":7,"precedence":0},{"id":"5a977e80b2b78c6734f18057","city":{"code":"Nganjuk","name":"Nganjuk","locator":null,"popular":false,"timezone":7},"code":"NJ","name":"Nganjuk","type":"STATION","locator":{"latitude":-7.600287,"longitude":111.902641},"popular":false,"timezone":7,"precedence":0},{"id":"5a977e80b2b78c6734f18059","city":{"code":"Nganjuk","name":"Nganjuk","locator":null,"popular":false,"timezone":7},"code":"WIL","name":"Wilangan","type":"STATION","locator":{"latitude":-75.61196,"longitude":111.80377},"popular":false,"timezone":7,"precedence":0},{"id":"5a977e80b2b78c6734f1805a","city":{"code":"Ngawi","name":"Ngawi","locator":null,"popular":false,"timezone":7},"code":"GG","name":"Geneng","type":"STATION","locator":{"latitude":-7.498032578559,"longitude":111.418552658721},"popular":false,"timezone":7,"precedence":0},{"id":"5a977e80b2b78c6734f1805b","city":{"code":"Ngawi","name":"Ngawi","locator":null,"popular":false,"timezone":7},"code":"KG","name":"Kedunggalar","type":"STATION","locator":{"latitude":-7.418259440576,"longitude":111.3066227881},"popular":false,"timezone":7,"precedence":0},{"id":"5a977e80b2b78c6734f1805c","city":{"code":"Ngawi","name":"Ngawi","locator":null,"popular":false,"timezone":7},"code":"WK","name":"Walikukun","type":"STATION","locator":{"latitude":-7.398889,"longitude":111.224722},"popular":false,"timezone":7,"precedence":0},{"id":"6319624b31558438618b18a4","city":{"code":"Ogan Ilir","name":"Ogan Ilir","locator":null,"popular":false,"timezone":7},"code":"PYK","name":"Payakabung","type":"STATION","locator":{"latitude":-3.1992426,"longitude":104.6023824},"popular":false,"timezone":7,"precedence":0},{"id":"651e38c73860453076fb8667","city":{"code":"Padang","name":"Padang","locator":null,"popular":false,"timezone":7},"code":"PD","name":"Padang","type":"STATION","locator":{"latitude":-0.9416892327,"longitude":100.3741354},"popular":false,"timezone":7,"precedence":0},{"id":"5a977e80b2b78c6734f18032","city":{"code":"Palembang","name":"Palembang","locator":null,"popular":false,"timezone":7},"code":"KPT","name":"Kertapati","type":"STATION","locator":{"latitude":-3.016516,"longitude":104.7516157},"popular":false,"timezone":7,"precedence":0},{"id":"5a977e80b2b78c6734f1805d","city":{"code":"Pasuruan","name":"Pasuruan","locator":null,"popular":false,"timezone":7},"code":"BG","name":"Bangil","type":"STATION","locator":{"latitude":-7.599056221145,"longitude":112.778273253967},"popular":false,"timezone":7,"precedence":0},{"id":"5a977e80b2b78c6734f1805e","city":{"code":"Pasuruan","name":"Pasuruan","locator":null,"popular":false,"timezone":7},"code":"GI","name":"Grati","type":"STATION","locator":{"latitude":-7.717369223173,"longitude":113.012049093254},"popular":false,"timezone":7,"precedence":0},{"id":"5a977e80b2b78c6734f1805f","city":{"code":"Pasuruan","name":"Pasuruan","locator":null,"popular":false,"timezone":7},"code":"PS","name":"Pasuruan","type":"STATION","locator":{"latitude":-7.637743,"longitude":112.910187},"popular":false,"timezone":7,"precedence":0},{"id":"6319624b31558438618b18b6","city":{"code":"Pasuruan","name":"Pasuruan","locator":null,"popular":false,"timezone":7},"code":"RO","name":"Rejoso","type":"STATION","locator":{"latitude":-7.6913331,"longitude":112.9503925},"popular":false,"timezone":7,"precedence":0},{"id":"5a977e80b2b78c6734f18062","city":{"code":"Pekalongan","name":"Pekalongan","locator":null,"popular":false,"timezone":7},"code":"BJG","name":"Bojong","type":"STATION","locator":{"latitude":-7.3472362,"longitude":108.4281236},"popular":false,"timezone":7,"precedence":0},{"id":"5a977e80b2b78c6734f18060","city":{"code":"Pekalongan","name":"Pekalongan","locator":null,"popular":false,"timezone":7},"code":"KNS","name":"Krengseng","type":"STATION","locator":{"latitude":-6.951946637232,"longitude":110.025778123491},"popular":false,"timezone":7,"precedence":0},{"id":"5a977e80b2b78c6734f18061","city":{"code":"Pekalongan","name":"Pekalongan","locator":null,"popular":false,"timezone":7},"code":"PK","name":"Pekalongan","type":"STATION","locator":{"latitude":-6.889766,"longitude":109.664225},"popular":false,"timezone":7,"precedence":0},{"id":"5a977e80b2b78c6734f18063","city":{"code":"Pekalongan","name":"Pekalongan","locator":null,"popular":false,"timezone":7},"code":"PLB","name":"Plabuan","type":"STATION","locator":{"latitude":-6.9198661,"longitude":109.9561018},"popular":false,"timezone":7,"precedence":0},{"id":"5a977e80b2b78c6734f18064","city":{"code":"Pekalongan","name":"Pekalongan","locator":null,"popular":false,"timezone":7},"code":"SRI","name":"Sragi","type":"STATION","locator":{"latitude":-6.923738,"longitude":109.571011},"popular":false,"timezone":7,"precedence":0},{"id":"5a977e80b2b78c6734f18065","city":{"code":"Pemalang","name":"Pemalang","locator":null,"popular":false,"timezone":7},"code":"CO","name":"Comal","type":"STATION","locator":{"latitude":-6.909288591881,"longitude":109.536846139881},"popular":false,"timezone":7,"precedence":0},{"id":"5a977e80b2b78c6734f18066","city":{"code":"Pemalang","name":"Pemalang","locator":null,"popular":false,"timezone":7},"code":"PML","name":"Pemalang","type":"STATION","locator":{"latitude":-6.88739,"longitude":109.388210626983},"popular":false,"timezone":7,"precedence":0},{"id":"5a977e80b2b78c6734f18067","city":{"code":"Pemalang","name":"Pemalang","locator":null,"popular":false,"timezone":7},"code":"PTA","name":"Petarukan","type":"STATION","locator":{"latitude":-6.9035539,"longitude":109.4407844},"popular":false,"timezone":7,"precedence":0},{"id":"5a977e80b2b78c6734f18068","city":{"code":"Pematang Siantar","name":"Pematang Siantar","locator":null,"popular":false,"timezone":7},"code":"SIR","name":"Siantar","type":"STATION","locator":{"latitude":2.95937,"longitude":99.06278},"popular":false,"timezone":7,"precedence":0},{"id":"5a977e80b2b78c6734f18069","city":{"code":"Ponorogo","name":"Ponorogo","locator":null,"popular":false,"timezone":7},"code":"BBD","name":"Babadan","type":"STATION","locator":{"latitude":-7.58701,"longitude":111.58858},"popular":false,"timezone":7,"precedence":0},{"id":"5a977e80b2b78c6734f1806a","city":{"code":"Prabumulih","name":"Prabumulih","locator":null,"popular":false,"timezone":7},"code":"BIB","name":"Blimbingpendopo","type":"STATION","locator":{"latitude":-3.4433,"longitude":103.976666},"popular":false,"timezone":7,"precedence":0},{"id":"5a977e80b2b78c6734f1806b","city":{"code":"Prabumulih","name":"Prabumulih","locator":null,"popular":false,"timezone":7},"code":"GNM","name":"Gunungmegang","type":"STATION","locator":{"latitude":-3.454111,"longitude":103.866777},"popular":false,"timezone":7,"precedence":0},{"id":"5a977e80b2b78c6734f1806c","city":{"code":"Prabumulih","name":"Prabumulih","locator":null,"popular":false,"timezone":7},"code":"PBM","name":"Prabumulih","type":"STATION","locator":{"latitude":-3.432932,"longitude":104.240903},"popular":false,"timezone":7,"precedence":0},{"id":"5a97f1bab2b78c73bc6f4576","city":{"code":"Probolinggo","name":"Probolinggo","locator":null,"popular":false,"timezone":7},"code":"LEC","name":"Leces","type":"STATION","locator":{"latitude":-7.84731235,"longitude":113.203713},"popular":false,"timezone":7,"precedence":0},{"id":"5a977e80b2b78c6734f1806d","city":{"code":"Probolinggo","name":"Probolinggo","locator":null,"popular":false,"timezone":7},"code":"PB","name":"Probolinggo","type":"STATION","locator":{"latitude":-7.742702,"longitude":113.215995},"popular":false,"timezone":7,"precedence":0},{"id":"5a977e80b2b78c6734f1806f","city":{"code":"Purwakarta","name":"Purwakarta","locator":null,"popular":false,"timezone":7},"code":"PLD","name":"Plered","type":"STATION","locator":{"latitude":-6.640915,"longitude":107.391219},"popular":false,"timezone":7,"precedence":0},{"id":"5a977e80b2b78c6734f1806e","city":{"code":"Purwakarta","name":"Purwakarta","locator":null,"popular":false,"timezone":7},"code":"PWK","name":"Purwakarta","type":"STATION","locator":{"latitude":-6.55282,"longitude":107.446477},"popular":false,"timezone":7,"precedence":0},{"id":"5a977e80b2b78c6734f18070","city":{"code":"Purwokerto","name":"Purwokerto","locator":null,"popular":false,"timezone":7},"code":"PWT","name":"Purwokerto","type":"STATION","locator":{"latitude":-7.420086881697,"longitude":109.221872562583},"popular":false,"timezone":7,"precedence":0},{"id":"5a977e80b2b78c6734f18071","city":{"code":"Purworejo","name":"Purworejo","locator":null,"popular":false,"timezone":7},"code":"JN","name":"Jenar","type":"STATION","locator":{"latitude":-7.802100708806,"longitude":110.000583440475},"popular":false,"timezone":7,"precedence":0},{"id":"6319624b31558438618b18af","city":{"code":"Purworejo","name":"Purworejo","locator":null,"popular":false,"timezone":7},"code":"WJ","name":"Wojo","type":"STATION","locator":{"latitude":-7.8619778,"longitude":110.0230254},"popular":false,"timezone":7,"precedence":0},{"id":"5a977e80b2b78c6734f18073","city":{"code":"Rantau Prapat","name":"Rantau Prapat","locator":null,"popular":false,"timezone":7},"code":"MBU","name":"Marbau","type":"STATION","locator":{"latitude":2.261273,"longitude":99.8197673},"popular":false,"timezone":7,"precedence":0},{"id":"5a977e80b2b78c6734f18072","city":{"code":"Rantau Prapat","name":"Rantau Prapat","locator":null,"popular":false,"timezone":7},"code":"RAP","name":"Rantau Prapat","type":"STATION","locator":{"latitude":2.113561667,"longitude":99.820015},"popular":false,"timezone":7,"precedence":0},{"id":"5a977e80b2b78c6734f18075","city":{"code":"Semarang","name":"Semarang","locator":null,"popular":true,"timezone":7},"code":"SMT","name":"Semarang Tawang Bank Jateng","type":"STATION","locator":{"latitude":-6.964109,"longitude":110.42778},"popular":true,"timezone":7,"precedence":0},{"id":"5a977e80b2b78c6734f18074","city":{"code":"Semarang","name":"Semarang","locator":null,"popular":false,"timezone":7},"code":"SMC","name":"Semarangponcol","type":"STATION","locator":{"latitude":-6.972904,"longitude":110.414636},"popular":false,"timezone":7,"precedence":0},{"id":"5a977e80b2b78c6734f18076","city":{"code":"Serang","name":"Serang","locator":null,"popular":false,"timezone":7},"code":"SG","name":"Serang","type":"STATION","locator":{"latitude":-6.112393,"longitude":106.15862},"popular":false,"timezone":7,"precedence":0},{"id":"6319624b31558438618b18b8","city":{"code":"Serdang Bedagai","name":"Serdang Bedagai","locator":null,"popular":false,"timezone":7},"code":"LDT","name":"Lidahtanah","type":"STATION","locator":{"latitude":3.5630525,"longitude":98.996897},"popular":false,"timezone":7,"precedence":0},{"id":"5a977e80b2b78c6734f18077","city":{"code":"Serdang Bedagai","name":"Serdang Bedagai","locator":null,"popular":false,"timezone":7},"code":"RPH","name":"Rampah","type":"STATION","locator":{"latitude":3.485562,"longitude":99.1382539},"popular":false,"timezone":7,"precedence":0},{"id":"5a977e80b2b78c6734f18078","city":{"code":"Sidoarjo","name":"Sidoarjo","locator":null,"popular":false,"timezone":7},"code":"GDG","name":"Gedangan","type":"STATION","locator":{"latitude":-7.389016964662,"longitude":112.728454889549},"popular":false,"timezone":7,"precedence":0},{"id":"5a977e80b2b78c6734f18079","city":{"code":"Sidoarjo","name":"Sidoarjo","locator":null,"popular":false,"timezone":7},"code":"KRN","name":"Krian","type":"STATION","locator":{"latitude":-7.410054,"longitude":112.586098},"popular":false,"timezone":7,"precedence":0},{"id":"5a977e80b2b78c6734f1807a","city":{"code":"Sidoarjo","name":"Sidoarjo","locator":null,"popular":false,"timezone":7},"code":"SPJ","name":"Sepanjang","type":"STATION","locator":{"latitude":-7.346939,"longitude":112.697785},"popular":false,"timezone":7,"precedence":0},{"id":"5a97f1e0b2b78c73bc6f4578","city":{"code":"Sidoarjo","name":"Sidoarjo","locator":null,"popular":false,"timezone":7},"code":"SDA","name":"Sidoarjo","type":"STATION","locator":{"latitude":-7.45703672,"longitude":112.71076071},"popular":false,"timezone":7,"precedence":0},{"id":"5a977e80b2b78c6734f1807b","city":{"code":"Sidoarjo","name":"Sidoarjo","locator":null,"popular":false,"timezone":7},"code":"WR","name":"Waru","type":"STATION","locator":{"latitude":-7.35388956,"longitude":112.72847851},"popular":false,"timezone":7,"precedence":0},{"id":"5a977e80b2b78c6734f1807c","city":{"code":"Solo","name":"Solo","locator":null,"popular":false,"timezone":7},"code":"PWS","name":"Purwosari","type":"STATION","locator":{"latitude":-7.561607711415,"longitude":110.796557823417},"popular":false,"timezone":7,"precedence":0},{"id":"5a977e80b2b78c6734f1807e","city":{"code":"Solo","name":"Solo","locator":null,"popular":false,"timezone":7},"code":"SLO","name":"Solobalapan","type":"STATION","locator":{"latitude":-7.556789,"longitude":110.821366},"popular":false,"timezone":7,"precedence":0},{"id":"5a977e80b2b78c6734f1807d","city":{"code":"Solo","name":"Solo","locator":null,"popular":false,"timezone":7},"code":"SK","name":"Solojebres","type":"STATION","locator":{"latitude":-7.562042,"longitude":110.839382},"popular":false,"timezone":7,"precedence":0},{"id":"5a977e80b2b78c6734f18081","city":{"code":"Sragen","name":"Sragen","locator":null,"popular":false,"timezone":7},"code":"KRO","name":"Kebonromo","type":"STATION","locator":{"latitude":-7.419103,"longitude":111.063947},"popular":false,"timezone":7,"precedence":0},{"id":"5a977e80b2b78c6734f1807f","city":{"code":"Sragen","name":"Sragen","locator":null,"popular":false,"timezone":7},"code":"KDB","name":"Kedungbanteng","type":"STATION","locator":{"latitude":-7.405262201877,"longitude":111.117072801835},"popular":false,"timezone":7,"precedence":0},{"id":"5a977e80b2b78c6734f18082","city":{"code":"Sragen","name":"Sragen","locator":null,"popular":false,"timezone":7},"code":"MSR","name":"Masaran","type":"STATION","locator":{"latitude":-7.468243,"longitude":110.947524},"popular":false,"timezone":7,"precedence":0},{"id":"5dc39dc4676cc134ae6ee65b","city":{"code":"Sragen","name":"Sragen","locator":null,"popular":false,"timezone":7},"code":"SLM","name":"Salem","type":"STATION","locator":{"latitude":0,"longitude":0},"popular":false,"timezone":7,"precedence":0},{"id":"5a977e80b2b78c6734f18080","city":{"code":"Sragen","name":"Sragen","locator":null,"popular":false,"timezone":7},"code":"SR","name":"Sragen","type":"STATION","locator":{"latitude":-7.429355,"longitude":111.017863},"popular":false,"timezone":7,"precedence":0},{"id":"5a977e80b2b78c6734f18084","city":{"code":"Subang","name":"Subang","locator":null,"popular":false,"timezone":7},"code":"CRA","name":"Cipunegara","type":"STATION","locator":{"latitude":-6.4554008,"longitude":107.8830915},"popular":false,"timezone":7,"precedence":0},{"id":"5a977e80b2b78c6734f18083","city":{"code":"Subang","name":"Subang","locator":null,"popular":false,"timezone":7},"code":"PGB","name":"Pegadenbaru","type":"STATION","locator":{"latitude":-6.453956758838,"longitude":107.816546565064},"popular":false,"timezone":7,"precedence":0},{"id":"5a977e80b2b78c6734f18085","city":{"code":"Subang","name":"Subang","locator":null,"popular":false,"timezone":7},"code":"TJS","name":"Tanjungrasa","type":"STATION","locator":{"latitude":-6.4083675,"longitude":107.5405821},"popular":false,"timezone":7,"precedence":0},{"id":"5a977e80b2b78c6734f1808a","city":{"code":"Sukabumi","name":"Sukabumi","locator":null,"popular":false,"timezone":7},"code":"CBD","name":"Cibadak","type":"STATION","locator":{"latitude":-6.888276,"longitude":106.780396},"popular":false,"timezone":7,"precedence":0},{"id":"5a977e80b2b78c6734f18086","city":{"code":"Sukabumi","name":"Sukabumi","locator":null,"popular":false,"timezone":7},"code":"CCR","name":"Cicurug","type":"STATION","locator":{"latitude":-6.79042374194,"longitude":106.779611743551},"popular":false,"timezone":7,"precedence":0},{"id":"5a977e80b2b78c6734f1808b","city":{"code":"Sukabumi","name":"Sukabumi","locator":null,"popular":false,"timezone":7},"code":"CRG","name":"Cireungas","type":"STATION","locator":{"latitude":-6.958534,"longitude":107.037211},"popular":false,"timezone":7,"precedence":0},{"id":"5a977e80b2b78c6734f18087","city":{"code":"Sukabumi","name":"Sukabumi","locator":null,"popular":false,"timezone":7},"code":"CSA","name":"Cisaat","type":"STATION","locator":{"latitude":-6.914005361073,"longitude":106.8875044957},"popular":false,"timezone":7,"precedence":0},{"id":"5a977e80b2b78c6734f1808c","city":{"code":"Sukabumi","name":"Sukabumi","locator":null,"popular":false,"timezone":7},"code":"GDS","name":"Gandasoli","type":"STATION","locator":{"latitude":-6.941465,"longitude":106.992148},"popular":false,"timezone":7,"precedence":0},{"id":"5a977e80b2b78c6734f1808d","city":{"code":"Sukabumi","name":"Sukabumi","locator":null,"popular":false,"timezone":7},"code":"KE","name":"Karang Tengah","type":"STATION","locator":{"latitude":-6.8960914,"longitude":106.8224274},"popular":false,"timezone":7,"precedence":0},{"id":"5a977e80b2b78c6734f18088","city":{"code":"Sukabumi","name":"Sukabumi","locator":null,"popular":false,"timezone":7},"code":"PRK","name":"Parungkuda","type":"STATION","locator":{"latitude":-6.8465705332,"longitude":106.760641737434},"popular":false,"timezone":7,"precedence":0},{"id":"5a977e80b2b78c6734f18089","city":{"code":"Sukabumi","name":"Sukabumi","locator":null,"popular":false,"timezone":7},"code":"SI","name":"Sukabumi","type":"STATION","locator":{"latitude":-6.925091,"longitude":106.929736},"popular":false,"timezone":7,"precedence":0},{"id":"6319624b31558438618b18a8","city":{"code":"Surabaya","name":"Surabaya","locator":null,"popular":false,"timezone":7},"code":"SB","name":"Surabaya Kota","type":"STATION","locator":{"latitude":-7.2429897,"longitude":112.7240404},"popular":false,"timezone":7,"precedence":0},{"id":"5a977e80b2b78c6734f1808f","city":{"code":"Surabaya","name":"Surabaya","locator":null,"popular":false,"timezone":7},"code":"SGU","name":"Surabaya Gubeng","type":"STATION","locator":{"latitude":-7.2653309,"longitude":112.7525622},"popular":false,"timezone":7,"precedence":0},{"id":"5a977e80b2b78c6734f1808e","city":{"code":"Surabaya","name":"Surabaya","locator":null,"popular":true,"timezone":7},"code":"SBI","name":"Surabaya Pasarturi","type":"STATION","locator":{"latitude":-7.247945088735,"longitude":112.731006882278},"popular":true,"timezone":7,"precedence":0},{"id":"5a977e80b2b78c6734f18090","city":{"code":"Surabaya","name":"Surabaya","locator":null,"popular":false,"timezone":7},"code":"WO","name":"Wonokromo","type":"STATION","locator":{"latitude":-7.301997,"longitude":112.739217},"popular":false,"timezone":7,"precedence":0},{"id":"5c06583ade6f8073a6fb9e45","city":{"code":"Surakarta","name":"Surakarta","locator":null,"popular":false,"timezone":7},"code":"SLOX","name":"Solo balapan","type":"STATION","locator":{"latitude":-7.556789,"longitude":110.821366},"popular":false,"timezone":7,"precedence":0},{"id":"5a977e80b2b78c6734f18091","city":{"code":"Tangerang","name":"Tangerang","locator":null,"popular":false,"timezone":7},